naptan:AtcoCode,naptan:Indicator,route_ref,osm_id,operator,local_ref,network,zone,lon,bench,note,source,location,type,highway,website,naptan:CommonName,name,shelter,bus,lat,ref_route,addr:street,ref,addr:city,wheelchair:description,trolleybus,wheelchair,tactile_paving,public_transport
,,,82550626,ATC,,ATC,,11.3442365,,,,,,bus_stop,,,Piazzale Bacchelli,,yes,44.4805668,,,,,,,,,stop_position
,,,250704254,,,,,11.3479755,,,,,,bus_stop,,,Due Torri,,yes,44.4944884,,,,,,,,,stop_position
,,,253892096,ATC,,ATC,,11.3729816,,,,,,bus_stop,,,Nuova,,yes,44.4983737,,,,,,,,,stop_position
,,,258507569,ATC,,ATC,,11.3684171,,,,,,bus_stop,,,Chiesa Nuova,,yes,44.4737981,,,,,,yes,,,stop_position
,,,259003967,,,AMIFE,,11.6103467,,,,,,bus_stop,,,Ferrara Autostazione - Rampari S. Paolo,,,44.8358492,,,600235,,,,,,
,,,264576027,ATC,,ATC,,11.35983,,,,,,bus_stop,,,Toscana Pavese 2,,yes,44.4486319,,,,,,yes,,,stop_position
,,,268079555,ATC,,ATC,,11.369505,,,,,,bus_stop,,,San Ruffillo,,yes,44.4570319,,,,,,yes,,,stop_position
,,,276291773,,,,,11.2322619,,,,,,bus_stop,,,,,,44.5803674,,,,,,,,,
,,,290040234,,,,,11.3604855,,,,,,bus_stop,,,Byron,,yes,44.5464096,,,,,,,,,stop_position
,,,296315883,,,,,11.3115096,,,,,,bus_stop,,,ITC Luxemburg,,yes,44.5141948,,,,,,,,,stop_position
,,,297791509,ATC,,ATC,,11.370328,,,,,,bus_stop,,,Parisio,,yes,44.4715285,,,,,,yes,,,stop_position
,,,304795155,,,,,11.9756532,,,,,,bus_stop,,,,,,44.414117,,,,,,,,,
,,,311488618,,,,,11.974607,,,,,,bus_stop,,,,,,44.4138084,,,,,,,,,
,,,315012244,,,,,12.0545215,,,,,,bus_stop,,,,,,44.2235232,,,,,,,,,
,,,315012248,,,,,12.0709167,,,,,,bus_stop,,,,,,44.1993897,,,,,,,,,
,,,315013159,Start Romagna,,,,12.5708031,,,,,,bus_stop,,,Cesare Battisti,,,44.0648509,,,5,,,,,,platform
,,,315013160,Start Romagna,,,,12.5731752,,,,,,bus_stop,,,Rimini FS,,,44.0637977,,,4,,,,,,platform
,,,315309363,Start Romagna,,,,12.5975482,,,,,,bus_stop,,,Neri,,,44.0519656,,,20,,,,,,platform
,,,315309364,Start Romagna,,,,12.5922002,,,,,,bus_stop,,,Goldoni,,,44.0571641,,,17,,,,,,platform
,,,315309368,Start Romagna,,,,12.5951155,,,,,,bus_stop,,,Lagomaggio,,,44.0543344,,,19,,,,,,platform
,,,315309374,Start Romagna,,,,12.5835664,,,,,,bus_stop,,,Derna,,,44.0653997,,,13,,,,,,platform
,,,315309378,Start Romagna,,,,12.581677,,,,,,bus_stop,,,Kennedy,,,44.0670057,,,12,,,,,,platform
,,,315309381,Start Romagna,,,,12.5756989,,,,,,bus_stop,,,Quattrocavalli,,,44.0704502,,,9,,,,,,platform
,,,359550456,,,,,11.3762824,,,,,,bus_stop,,,Osteria Vecchia,yes,,44.6485398,,,40570,,,,,,
,,,359550457,,,,,11.3770122,,,,,,bus_stop,,,San Giorgio di Piano Giovanni XXIII,yes,,44.6503158,,,40574,,,,,,
,,,359550458,,,,,11.3765061,,,,,,bus_stop,,,Osteria Vecchia,yes,,44.6487931,,,40571,,,,,,
,,,359550459,,,,,11.3771427,,,,,,bus_stop,,,San Giorgio di Piano Giovanni XXIII,yes,,44.6506331,,,40573,,,,,,
,,,387396968,,,,,11.7183856,,,,,,bus_stop,,,Stazione,,,44.3591002,,,,,,,,,
,,,387396971,,,,,11.7070634,,,,,,bus_stop,,,,,,44.3531424,,,,,,,,,
,,,387396972,,,,,11.7058473,,,,,,bus_stop,,,,,,44.3534108,,,,,,,,,
,,,387488902,,,,,11.6910377,,,,,,bus_stop,,,Zolino,,,44.3626534,,,,,,,,,
,,,387488905,,,,,11.6916249,,,,,,bus_stop,,,Zolino,,,44.3622277,,,,,,,,,
,,,387488906,,,,,11.7022705,,,,,,bus_stop,,,,,,44.3582324,,,,,,,,,
,,,387488907,,,,,11.7035637,,,,,,bus_stop,,,,,,44.3575724,,,,,,,,,
,,,387488908,,,,,11.7059878,,,,,,bus_stop,,,,,,44.3566107,,,,,,,,,
,,,387488909,,,,,11.7060518,,,,,,bus_stop,,,,,,44.3567117,,,,,,,,,
,,,387488911,,,,,11.7073339,,,,,,bus_stop,,,,,,44.3574819,,,,,,,,,
,,,412480084,,,,,11.1955778,,,,,,bus_stop,,,,,,44.6321379,,,,,,,,,
,,,415304994,,,,,11.372526,,,,,,bus_stop,,,San Giorgio Galliera Centese,no,,44.6366096,,,44503,,,,,,
,,,415304999,,,,,11.3715286,,,,,,bus_stop,,,San Giorgio Centese Pasolini,yes,,44.6391906,,,44501,,,,,,
,,,420732308,,,,,11.3943903,,,,,,bus_stop,,,Bombicci,,,44.4792762,,,,,,,,,
,,,420761391,,,,,11.2931851,,,,,,bus_stop,,,Aeroporto Arrivi,,,44.5294136,,,,,,,,,
,,,430542833,,,,,12.3983241,,,,,,bus_stop,,,Porto Canale,,,44.2021124,,,30111,,,,,,
,,,430542834,,,,,12.4045263,,,,,,bus_stop,,,Grattacielo,,,44.2015585,,,30132,,,,,,
,,,442264397,,,,,11.3145975,,,,,,bus_stop,,,Ravone,yes,,44.4826281,,,,,,,,,
,,,508463264,,,,,11.3912409,,,,,,bus_stop,,,,,,44.6799424,,,,,,,,,
,,,508463265,,,,,11.3912676,,,,,,bus_stop,,,,,,44.6799199,,,,,,,,,
,,,508899717,,,,,11.2486629,,,,,,bus_stop,,,Casalecchio Palasport,,,44.4867058,,,,,,,,,
,,,510113548,,,,,11.2810173,,,,,,bus_stop,,,Casalecchio Municipio,,,44.4772762,,,,,,,,,
,,,512194114,,,,,11.3770538,,,,,,bus_stop,,,San Giorgio di Piano Panzacchi,no,,44.6478509,,,40569,,,,,,
,,,512194115,,,,,11.3772705,,,,,,bus_stop,,,San Giorgio di Piano Panzacchi,no,,44.6478718,,,40572,,,,,,
,,,512194116,,,,,11.3772771,,,,,,bus_stop,,,San Giorgio di Piano Circonvallazione,yes,,44.6454567,,,40559,,,,,,
,,,512194117,,,,,11.3771086,,,,,,bus_stop,,,San Giorgio di Piano Circonvallazione,yes,,44.6454414,,,40560,,,,,,
,,,546293043,,,,,11.3703352,,,,,,bus_stop,,,Pasolini,no,,44.6404465,,,40567,,,,,,
,,,546293044,,,,,11.3705145,,,,,,bus_stop,,,Pasolini,no,,44.6402993,,,40576,,,,,,
,,,546293047,,,,,11.3727109,,,,,,bus_stop,,,San Giorgio Galliera Centese,yes,,44.6375973,,,44502,,,,,,
,,,546293048,,,,,11.3712452,,,,,,bus_stop,,,San Giorgio Centese Pasolini,yes,,44.6391252,,,44500,,,,,,
,,,546293050,,,,,11.3729693,,,,,,bus_stop,,,Masina,no,,44.6396541,,,40564,,,,,,
,,,546293051,,,,,11.37279,,,,,,bus_stop,,,Masina,no,,44.6398013,,,40563,,,,,,
,,,546293053,,,,,11.3739622,,,,,,bus_stop,,,Don Marella,no,,44.6429314,,,40555,,,,,,
,,,546293055,,,,,11.376967,,,,,,bus_stop,,,San Giorgio di Piano Circonvallazione,no,,44.6451811,,,40580,,,,,,
,,,546293056,,,,,11.3786937,,,,,,bus_stop,,,San Giorgio di Piano Stazione,no,,44.6467839,,,40568,,,,,,
,,,549193472,,,,,11.3748491,,,,,,bus_stop,,,Don Marella,no,,44.6432542,,,40562,,,,,,
,,,549766375,,,,,12.1980876,,,,,,bus_stop,,,Università di Bologna - Agraria,yes,,44.4351753,,,,,,,,,
,,,550486357,,,,,11.3686777,,,,,,bus_stop,,,Funo Z.I. Larghe,yes,,44.6089338,,,,,,,,,
,,,550486361,,,,,11.3687922,,,,,,bus_stop,,,Funo Z.I. Larghe,yes,,44.6091643,,,,,,,,,
,,,550687423,,,,,11.5491718,,,,,,bus_stop,,,Liano Pozzo,no,,44.3745423,,,11230,,,,,,
,,,550687425,,,,,11.5491608,,,,,,bus_stop,,,Liano Pozzo,no,,44.3744816,,,11229,,,,,,
,,,550687429,,,,,11.4296455,,,,,,bus_stop,,,La Bianchina,no,,44.4009032,,,94534,,,,,,
,,,550687432,,,,,11.4295598,,,,,,bus_stop,,,La Bianchina,no,,44.4008286,,,94533,,,,,,
,,,599590734,,,,,11.3565062,,,,,,bus_stop,,,,no,,44.5602558,,,,,,,,,
,,,599590736,,,,,11.3563464,,,,,,bus_stop,,,,yes,,44.559571,,,,,,,,,
,,,599590742,,,,,11.3602404,,,,,,bus_stop,,,,,,44.5702228,,,,,,,,,
,,,599590743,,,,,11.3603181,,,,,,bus_stop,,,,,,44.570478,,,,,,,,,
,,,599590748,,,,,11.3629123,,,,,,bus_stop,,,,,,44.5740643,,,,,,,,,
,,,599590758,,,,,11.3632322,,,,,,bus_stop,,,,,,44.574483,,,,,,,,,
,,,599590760,,,,,11.365067,,,,,,bus_stop,,,,no,,44.5769001,,,,,,,,,
,,,599590761,,,,,11.3647971,,,,,,bus_stop,,,,no,,44.576531,,,,,,,,,stop_area
,,,599596751,,,,,11.3695133,,,,,,bus_stop,,,,,,44.5947391,,,,,,,,,
,,,599596753,,,,,11.3703767,,,,,,bus_stop,,,,,,44.5961281,,,,,,,,,
,,,599596754,,,,,11.3700826,,,,,,bus_stop,,,,,,44.6005916,,,,,,,,,
,,,599596755,,,,,11.3696697,,,,,,bus_stop,,,,,,44.5999896,,,,,,,,,
,,,599596756,,,,,11.3690607,,,,,,bus_stop,,,Stiatico Bivio,,,44.6142913,,,,,,,,,
,,,599596757,,,,,11.3691917,,,,,,bus_stop,,,Stiatico Bivio,,,44.6143404,,,,,,,,,
,,,599596758,,,,,11.3704858,,,,,,bus_stop,,,Lepre Bivio,yes,,44.6172663,,,,,,,,,
,,,599596760,,,,,11.3701663,,,,,,bus_stop,,,Lepre Bivio,yes,,44.6169691,,,,,,,,,
,,,599596761,,,,,11.3706585,,,,,,bus_stop,,,Varsavia,yes,,44.6224171,,,,,,,,,
,,,599596762,,,,,11.3704168,,,,,,bus_stop,,,Varsavia,yes,,44.622377,,,,,,,,,
,,,599596763,,,,,11.3704599,,,,,,bus_stop,,,Comastri,yes,,44.628792,,,,,,,,,
,,,599596764,,,,,11.3710104,,,,,,bus_stop,,,Comastri,yes,,44.6297995,,,,,,,,,
,,,615551066,,,,,11.3576059,,,,,,bus_stop,,,,,,44.5748548,,,,,,,,,
,,,615551067,,,,,11.3581135,,,,,,bus_stop,,,,,,44.5746352,,,,,,,,,
,,,615551148,,,,,11.3561847,,,,,,bus_stop,,,,,,44.579008,,,,,,,,,
,,,615551209,,,,,11.3613825,,,,,,bus_stop,,,,,,44.5737321,,,,,,,,,
,,,615551210,,,,,11.3618168,,,,,,bus_stop,,,,,,44.5735789,,,,,,,,,
,,,615551354,,,,,11.363927,,,,,,bus_stop,,,,,,44.576371,,,,,,,,,
,,,615551356,,,,,11.3624073,,,,,,bus_stop,,,,,,44.5770903,,,,,,,,,
,,,615551357,TPER,,,,11.3607462,,,,,,bus_stop,,,98,,,44.5778525,,,,,,,,,
,,,615551358,TPER,,,,11.3605126,,,,,,bus_stop,,,98,,,44.5779649,,,,,,,,,
,,"14, 21, 61, 89",622143443,,,,,11.3126707,,,,,,bus_stop,,,Magnani,yes,,44.4942421,,,,,,,,,
,,,629734639,,,,,11.3287169,,,,,,bus_stop,,,Marco Polo,,,44.5192429,,,,,,,,,
,,,629734757,,,,,11.3279444,,,,,,bus_stop,,,Grazia,,,44.5166295,,,,,,,,,
,,,632700238,ATC,,ATC,,11.3709089,,,,,,bus_stop,,,Villa Mazzacorati,,yes,44.4686329,,,,,,yes,,,stop_position
,,,632700264,ATC,,ATC,,11.3708785,,,,,,bus_stop,,,Direttissima,,yes,44.4634277,,,,,,yes,,,stop_position
,,,632931481,ATC,,ATC,,11.3687676,,,,,,bus_stop,,,Del Pozzo,,yes,44.4557486,,,,,,yes,,,stop_position
,,,659955640,,,,,11.3591951,,,,,,bus_stop,,,Lavoro,yes,,44.5052749,,,,,,,,,
,,,659955641,,,,,11.3592824,,,,,,bus_stop,,,Lavoro,no,,44.5055416,,,,,,,,,
,,35,662893598,,,,,11.3638141,,,,,,bus_stop,,,Aldo Moro,yes,,44.507703,,,,,,,,,
,,35,662893599,,,,,11.369079,,,,,,bus_stop,,,Viale Fiera,,,44.5082945,,,,,,,,,
,,35,662893600,,,,,11.3705536,,,,,,bus_stop,,,Ferravilla,,,44.507042,,,,,,,,,
,,20;21;35,662893601,,,,,11.3737262,,,,,,bus_stop,,,Sirenella,,,44.5061533,,,,,,,,,
,,20;21;35,662893602,,,,,11.3744429,,,,,,bus_stop,,,Sirenella,,,44.5063879,,,,,,,,,
,,20;21;35;88;93,662893603,,,,,11.3782105,,,,,,bus_stop,,,San Donnino,,,44.508636,,,,,,,,,
,,20;21;35;88;93,662893604,,,,,11.3783435,,,,,,bus_stop,,,San Donnino,,,44.5084735,,,,,,,,,
,,14;35,662893605,,,,,11.3911045,,,,,,bus_stop,,,Carpentiere,,,44.5043237,,,,,,,,,
,,14;35,662893606,,,,,11.3945616,,,,,,bus_stop,,,Industria,,,44.5046576,,,,,,,,,
,,14;35,662893607,,,,,11.3834209,,,,,,bus_stop,,,Bivio Pilastro,,,44.5100518,,,,,,,,,
,,14C;35,662893608,,,,,11.3884065,,,,,,bus_stop,,,Pilastro Vecchio,,,44.5077492,,,,,,,,,
,,14;20;21;35;93,662893610,,,,,11.3853319,,,,,,bus_stop,,,Cadriano Bivio,yes,,44.5120154,,,,,,,,,
,,14;35,662893611,,,,,11.3897536,,,,,,bus_stop,,,Pirandello,yes,,44.511726,,,,,,,,,
,,35;55,662893612,,,,,11.3965955,,,,,,bus_stop,,,Scalo San Donato,,,44.5077681,,,,,,,,,
,,20;35;55,662893613,,,,,11.3947914,,,,,,bus_stop,,,Svevo,yes,,44.5084254,,,,,,,,,
,,35;55,662893614,,,,,11.396,,,,,,bus_stop,,,Pilastro,yes,,44.5104411,,,,,,,,,
,,14,671382661,,,,,11.3736473,,,,,,bus_stop,,,Rimesse stazione,yes,,44.4933139,,,,,,,yes,,
,,,687337972,,,AMIFE,,11.6119747,,,,,,bus_stop,,,Isonzo - Poledrelli,,,44.8402298,,,,,,,,,
,,,690811589,,,,,10.8872261,yes,,,,,bus_stop,,,,no,,44.0769787,,,,,,,,,
,,,691627896,,,,,11.3513528,,,,,,bus_stop,,,Carteria Scuole,,,44.4264779,,,,,,,,,
,,,691627899,,,,,11.351593,,,,,,bus_stop,,,Carteria Scuole,,,44.4264731,,,,,,,,,
,,,691691012,,,,,11.3219318,,,,,,bus_stop,,,Loiano Roma Municipio,,,44.270233,,,,,,,,,
,,,691691115,,,,,11.3247634,,,,,,bus_stop,,,,,,44.2648649,,,,,,,,,
,,,699043882,,,,,11.4006478,,,,,,bus_stop,,,Croara Bivio,,,44.4640439,,,,,,,,,stop_position
,,,703267820,AMI,,,,11.5938409,,,,,,bus_stop,,,Bologna - Luzzaschi,,,44.8114107,,,600396,,,,,,
,,,703267821,AMI,,AMIFE,,11.6192212,,,,Via Pavone 22-26,,bus_stop,,,Via Pavone - Via Arianuova,,,44.8446082,,,600174,,,,,,
,,,703267823,AMI,,AMIFE,,11.6109646,,,,,,bus_stop,,,Porta Catena - Aguiari,,,44.8469866,,,600494,,,,,,
,,,703267824,AMI,,AMIFE,,11.615061,,,,,,bus_stop,,,Del Campo - Poletti,,,44.8230019,,,600448,,,,,,
,,,703267825,AMI,,AMIFE,,11.6064121,,,,,,bus_stop,,,Bologna - Aeroporto,,,44.82214,,,600406,,,,,,
,,,703267826,AMI,,AMIFE,,11.6094013,,,,,,bus_stop,,,Porta Catena - Viale Po,,,44.8455402,,,600491,,,,,,
,,,703267827,AMI,,AMIFE,,11.6185411,,,,,,bus_stop,,,Fabbri - Putinati,,,44.8254353,,,600611,,,,,,
,,,703267830,AMI,,AMIFE,,11.5994408,,,,,,bus_stop,,,Ingegneria,,,44.8357374,,,600467,,,,,,
,,,703267834,AMI,,AMIFE,,11.6339317,,,,,,bus_stop,,,S. Rocco - Medaglie d'Oro,,,44.8324082,,,600016,,,,,,
,,,703267835,AMI,,AMIFE,,11.6330221,,,,,,bus_stop,,,Alfonso d'Este - Medaglie d'Oro,,,44.8313555,,,600710,,,,,,
,,,703267837,AMI,,,,11.5731947,,,,,,bus_stop,,,Via Bologna - Bar Incontro,,,44.7979771,,,600636,,,,,,
,,,703267838,AMI,,AMIFE,,11.6250466,,,,,,bus_stop,,,Porta Mare - Ariostea,,,44.8419072,,,600182,,,,,,
,,,703267839,AMI,,AMIFE,,11.6186924,,,,,,bus_stop,,,Cavour - Giardini,,,44.8387764,,,600164,,,,limited,,
,,,703267841,AMI,,AMIFE,,11.6276685,,,,,,bus_stop,,,Giovecca - Parco Pareschi,,,44.8344446,,,600205,,,,,,
,,,703267842,AMI,,AMIFE,,11.610047,,,,,,bus_stop,,,Bologna - Ippodromo,,,44.8263921,,,600446,,,,,,
,,,703267843,AMI,,,,11.6013181,,,,,,bus_stop,,,Bologna - Centro Commerciale Il Castello,,,44.8168674,,,600400,,,,limited,,
,,,703267845,AMI,,AMIFE,,11.6131078,,,,,,bus_stop,,,Bologna - Argine Ducale,,,44.8289345,,,600422,,,,,,
,,,703267846,AMI,,AMIFE,,11.6126686,,,,,,bus_stop,,,Porta Catena - P.le dei Giochi,,,44.8482571,,,600495,,,,,,
,,,703267847,AMI,,AMIFE,,11.6129054,,,,,,bus_stop,,,Boldrini,,,44.8217039,,,600344,,,,,,
,,,703267848,AMI,,AMIFE,,11.606601,,,,,,bus_stop,,,Stazione Porta Reno,,,44.8249174,,,600450,,,,,,
,,,703267849,AMI,,AMIFE,,11.6182434,,,,,,bus_stop,,,Del Campo - Cimitero,,,44.8222479,,,600340,,,,,,
,,,703267850,AMI,,AMIFE,,11.6120044,,,,,,bus_stop,,,Cavour - Isonzo,yes,,44.8419472,,,600160,,,,,,
,,,703267855,AMI,,AMIFE,,11.6043547,,,,,,bus_stop,,,Stazione FS,,,44.8427726,,,600475,,,,,,
,,11;A;356,703267859,AMI,,,,11.5840128,,,,Via Bologna,,bus_stop,,,Bologna - Coldiretti,,,44.8048704,,,600392,,,,,,
,,,703267860,AMI,,AMIFE,,11.6334928,,,,,,bus_stop,,,Porta Mare - Mortara,,,44.840859,,,600603,,,,,,
,,,703267862,AMI,,AMIFE,,11.6118273,,,,,,bus_stop,,,Bologna - Ungarelli,,,44.8278586,,,600418,,,,,,
,,,703267863,AMI,,,,11.5902323,,,,,,bus_stop,,,Veneziani,,,44.8159387,,,600393,,,,,,
,,,703267864,AMI,,AMIFE,,11.6174921,,,,,,bus_stop,,,XXV Aprile - Mirasole,,,44.8476752,,,600170,,,,,,
,,,703267865,AMI,,AMIFE,,11.6133165,,,,,,bus_stop,,,Goretti - Bologna,,,44.8284849,,,600335,,,,,,
,,,703267866,AMI,,AMIFE,,11.6121009,,,,,,bus_stop,,,Isonzo - Garibaldi,,,44.8387881,,,600155,,,,,,
,,11,703267867,AMI,,AMIFE,,11.6149332,,,,,,bus_stop,,,Canapa - Parco Bassani,,,44.8528717,,,600546,,,,,,
,,,703267869,AMI,,AMIFE,,11.6307691,,,,,,bus_stop,,,Comacchio - Boschetto,,,44.8225052,,,600320,,,,,,
,,,703267870,AMI,,,,11.5707326,,,,,,bus_stop,,,Modena - Primo Levi,,,44.8482288,,,600579,,,,,,
,,,703267875,AMI,,,,11.5925204,,,,,,bus_stop,,,Modena - Eridano,,,44.8475415,,,600571,,,,,,
,,,703267876,AMI,,AMIFE,,11.6247462,,,,,,bus_stop,,,Giovecca - Montebello,,,44.835785,,,600204,,,,,,
,,,703267878,AMI,,AMIFE,,11.6039631,,,,,,bus_stop,,,Piave - San Giacomo,,,44.8412985,,,600479,,,,,,
,,11;A;356,703267879,AMI,,,,11.5869364,,,,Via Bologna,,bus_stop,,,Bologna - Chiesuol del Fosso,,,44.8067629,,,600388,,,,,,
,,,703267880,AMI,,AMIFE,,11.6203884,,,,Corso Biagio Rossetti F. 18,urban,bus_stop,,,B. Rossetti - Pavone (Ostello),,,44.842506,,,600178,,,,,,
,,,703267881,AMI,,AMIFE,,11.6318975,,,,,,bus_stop,,,Mortara - Borsari,,,44.8389083,,,600190,,,,,,
,,,703267882,AMI,,AMIFE,,11.6031831,,,,,,bus_stop,,,Barlaam - Zappaterra,,,44.828487,,,600460,,,,,,
,,,703267883,AMI,,,,11.5967159,,,,,,bus_stop,,,Bologna - Veneziani,,,44.8133089,,,600929,,,,,,
,,,703267884,AMI,,AMIFE,,11.6194673,,,,,,bus_stop,,,Viale XXV Aprile - Contrada Mirasole,,,44.8478642,,,600167,,,,,,
,,11,703267886,AMI,,,,11.6137283,,,,,,bus_stop,,,Canapa - Motorizzazione,,,44.8573204,,,600542,,,,,,
,,,703267889,AMI,,AMIFE,,11.6097837,yes,,,,,bus_stop,,,Cavour - Barriera,yes,,44.8430148,,,600158,,,,,,
,,,703267890,AMI,,,,11.580916,,,,,,bus_stop,,,Mizzana - Ponte,,,44.8476882,,,600578,,,,,,
,,,703267893,AMI,,AMIFE,,11.6308983,,,,,,bus_stop,,,Giovecca - Città della Salute,,,44.8328956,,,600203,,,,,,
,,,703267896,AMI,,AMIFE,,11.6347874,,,,,,bus_stop,,,S. Rocco - Fossato di Mortara,,,44.8369353,,,600018,,,,,,
,,,703267897,AMI,,AMIFE,,11.6216276,,,,,,bus_stop,,,Giovecca - Teatini,,,44.8372767,,,600202,,,,,,
,,11;A;356,703267899,AMI,,,,11.5868554,,,,Via Bologna,,bus_stop,,,Bologna - Chiesuol del Fosso,,,44.8068885,,,600385,,,,,,
,,,703267901,AMI,,AMIFE,,11.6273454,,,,,,bus_stop,,,Via Montebello - Via Bovelli,,,44.8384982,,,600186,,,,,,
,,,703267902,AMI,,AMIFE,,11.6067969,,,,,,bus_stop,,,Po - Oroboni,,,44.8453305,,,600613,,,,,,
,,,703267904,AMI,,AMIFE,,11.6051005,,,,,,bus_stop,,,Bologna - Aeroporto,,,44.8211933,,,600407,,,,,,
,,,703267905,AMI,,AMIFE,,11.6069968,,,,,,bus_stop,,,Po - Oroboni,,,44.8451136,,,600497,,,,,,
,,,703267907,AMI,,AMIFE,,11.617064,,,,,,bus_stop,,,Goretti - Fabbri,,,44.826143,,,600338,,,,,,
,,,703267909,AMI,,AMIFE,,11.5998331,,,,,,bus_stop,,,Ingegneria,,,44.8357924,,,600635,,,,,,
,,,703267915,AMI,,AMIFE,,11.6326064,,,,,,bus_stop,,,Piazzale Medaglie d'Oro,,,44.8320929,,,600193,,,,,,
,,,703267916,AMI,,AMIFE,,11.6327616,,,,,,bus_stop,,,Alfonso d'Este - Medaglie d'Oro,,,44.8312826,,,600195,,,,,,
,,,703267917,AMI,,AMIFE,,11.6003246,,,,,,bus_stop,,,Modena - Marconi (Bivio Doro),,,44.8464481,,,600498,,,,,,
,,,703267918,AMI,,,,11.5729104,,,,,,bus_stop,,,Via Bologna - Bar Incontro,,,44.797745,,,600391,,,,,,
,,,703267919,AMI,,AMIFE,,11.6280617,,,,,,bus_stop,,,Porta Mare - Via Montebello,,,44.8417432,,,600188,,,,,,
,,,703267920,AMI,,AMIFE,,11.6183424,,,,,,bus_stop,,,Cavour - Giardini,,,44.8387577,,,600165,,,,,,
,,,703267921,AMI,,AMIFE,,11.6084081,,,,,,bus_stop,,,Bologna - Foro Boario,,,44.8244136,,,600410,,,,,,
,,,703267923,AMI,,,,11.5957353,,,,,,bus_stop,,,Bologna - Veneziani,,,44.8131327,,,600395,,,,,,
,,,703267924,AMI,,AMIFE,,11.6206235,,,,,,bus_stop,,,B. Rossetti - Palazzo dei Diamanti,,,44.8424693,,,600908,,,,,,
,,,703267925,AMI,,AMIFE,,11.6139274,,,,,,bus_stop,,,Bologna - Argine Ducale,,,44.8299149,,,600420,,,,,,
,,,703267928,AMI,,AMIFE,,11.6110311,,,,,,bus_stop,,,Porta Catena - Aguiari,,,44.8468558,,,600493,,,,,,
,,,703267929,AMI,,AMIFE,,11.6135488,,,,,,bus_stop,,,Boldrini,,,44.8222141,,,600345,,,,,,
,,,703267930,AMI,,AMIFE,,11.6074604,,,,,,bus_stop,,,Bologna - Pesci,,,44.8233615,,,600408,,,,,,
,,,703267931,AMI,,AMIFE,,11.6190047,,,,,,bus_stop,,,Del Campo - Cimitero,,,44.8225778,,,600341,,,,,,
,,,703267934,AMI,,AMIFE,,11.6048142,,,,,,bus_stop,,,Stazione FS - Fronte,,,44.8426483,,,600476,,,,,,
,,,703267938,AMI,,,,11.5886996,,,,,,bus_stop,,,Modena - Legnano,,,44.8475324,,,600573,,,,,,
,,,703267939,AMI,,AMIFE,,11.6183616,,,,,,bus_stop,,,Corso Porta Reno,,,44.8346498,,,600213,,,,,,
,,11;A;356,703267940,AMI,,,,11.5783843,,,,,,bus_stop,,,Chiesuol del Fosso,,,44.8034085,,,600139,,,,,,
,,,703267942,AMI,,AMIFE,,11.629421,,,,,,bus_stop,,,Porta Mare - Via Montebello,,,44.8412674,,,600604,,,,,,
,,,703267944,AMI,,AMIFE,,11.6297602,,,,,,bus_stop,,,Mortara - Dispensario,,,44.8350252,,,600192,,,,,,
,,,703267946,AMI,,AMIFE,,11.6120419,,,,,,bus_stop,,,Bologna - Ungarelli,,,44.8282276,,,600419,,,,,,
,,,703267949,AMI,,,,11.6000255,,,,,,bus_stop,,,Ex Dazio,,,44.8159185,,,600399,,,,,,
,,,703267953,AMI,,AMIFE,,11.6145054,,,,,,bus_stop,,,Fabbri - Bologna,,,44.8293907,,,600631,,,,,,
,,11,703267955,AMI,,AMIFE,,11.6152266,,,,,,bus_stop,,,Canapa - Parco Bassani,,,44.8526584,,,600545,,,,,,
,,,703267957,AMI,,AMIFE,,11.6129035,,,,,,bus_stop,,,Pesci,,,44.8209578,,,600347,,,,,,
,,,703267960,AMI,,AMIFE,,11.6308815,,,,,,bus_stop,,,Comacchio - Boschetto,,,44.8224193,,,600319,,,,,,
,,,703267961,AMI,,AMIFE,,11.6125069,,,,,,bus_stop,,,Piangipane - Ripagrande,,,44.8365443,,,600233,,,,,,
,,,703267970,AMI,,,,11.592384,,,,,,bus_stop,,,Modena - Eridano,,,44.8477136,,,600572,,,,,,
,,,703267972,AMI,,AMIFE,,11.624791,,,,,,bus_stop,,,Giovecca - Montebello,,,44.8359068,,,600207,,,,,,
,,11;A;356,703267979,AMI,,,,11.5897903,,,,Via Bologna,,bus_stop,,,Bologna - Centro Congressi,,,44.8089589,,,600387,,,,,,
,,,703267981,AMI,,AMIFE,,11.6224105,no,,,,urban,bus_stop,,,Porta Mare - Palazzo Diamanti,no,,44.8422428,,,600179,,,,,,
,,,703267982,AMI,,AMIFE,,11.6307846,,,,,,bus_stop,,,Mortara - Bovelli,,,44.8369562,,,600191,,,,,,
,,,703267985,AMI,,AMIFE,,11.6027292,,,,,,bus_stop,,,Barlaam - Zappaterra,,,44.8288211,,,600458,,,,,,
,,,703267987,AMI,,AMIFE,,11.6156403,,,,,,bus_stop,,,XXV Aprile - Partigiani,,,44.8478162,,,600168,,,,,,
,,,703267988,AMI,,AMIFE,,11.6154895,,,,,,bus_stop,,,Piazza Kennedy,,,44.8319157,,,600427,,,,limited,,
,,11,703267989,AMI,,,,11.6137386,,,,,,bus_stop,,,Canapa - Motorizzazione,,,44.8580224,,,600541,,,,,,
,,,703267991,AMI,,AMIFE,,11.6095016,yes,,,,,bus_stop,,,Cavour - Barriera,yes,,44.8429762,,,600159,,,,,,
,,,703267993,AMI,,,,11.5813222,,,,,,bus_stop,,,Mizzana - Ponte,,,44.847593,,,600577,,,,,,
,,,703267995,AMI,,AMIFE,,11.6285685,,,,,,bus_stop,,,Giovecca - Parco Pareschi,,,44.8338585,,,600206,,,,,,
,,,703267996,AMI,,AMIFE,,11.6171876,,,,,,bus_stop,,,Piazza Travaglio,,,44.8333609,,,600215,,,,,,
,,,703267997,AMI,,AMIFE,,11.598073,,,,,,bus_stop,,,Modena - Marconi (Bivio Doro),,,44.8470324,,,600569,,,,,,
,,,703267998,AMI,,AMIFE,,11.6345729,,,,,,bus_stop,,,S. Rocco - Farmacia,,,44.8397656,,,600020,,,,,,
,,,703268002,AMI,,AMIFE,,11.6220841,,,,,,bus_stop,,,Giovecca - Teatini,,,44.8371658,,,600209,,,,,,
,,11;A;356,703268004,AMI,,,,11.5907264,,,,Via Bologna,,bus_stop,,,Bologna - Centro Congressi,,,44.8093406,,,600390,,,,,,
,,,703268006,AMI,,AMIFE,,11.626091,,,,,,bus_stop,,,Via Montebello - Via Bellaria,,,44.8365222,,,600185,,,,,,
,,,703268009,AMI,,,,11.604045,,,,,,bus_stop,,,Krasnodar - Bologna,,,44.8205308,,,600438,,,,,,
,,,703268012,AMI,,AMIFE,,11.6153705,,,,,,bus_stop,,,Goretti - Ippodromo,,,44.8271682,,,600337,,,,,,
,,,703268015,AMI,,AMIFE,,11.6039105,,,,,,bus_stop,,,Argine Ducale,,,44.8338594,,,600465,,,,,,
,,,703268017,AMI,,,,11.5832265,,,,,,bus_stop,,,Mizzana,,,44.847407,,,600575,,,,,,
,,,703268019,AMI,,AMIFE,,11.6336981,,,,,,bus_stop,,,S. Rocco - Medaglie d'Oro,,,44.8325191,,,600017,,,,,,
,,,703268021,AMI,,AMIFE,,11.6014238,,,,,,bus_stop,,,Po - Padova,,,44.8468169,,,600496,,,,,,
,,,703268022,AMI,,AMIFE,,11.6328627,,,,,,bus_stop,,,Mortara - Porta Mare,,,44.840717,,,600189,,,,,,
,,,703268023,AMI,,AMIFE,,11.6161055,,,,,,bus_stop,,,Cavour - P. Beretta,,,44.8399959,,,600162,,,,,,
,,,703268025,AMI,,AMIFE,,11.6082284,,,,,,bus_stop,,,Bologna - Foro Boario,,,44.8244459,,,600415,,,,,,
,,,703268026,AMI,,,,11.5973688,,,,,,bus_stop,,,Bologna - Zandonai,,,44.814166,,,600397,,,,,,
,,,703268029,AMI,,AMIFE,,11.6125,,,,,,bus_stop,,,Porta Catena - P.le dei Giochi,,,44.8482185,,,600492,,,,,,
,,,703268030,AMI,,AMIFE,,11.615243,,,,,,bus_stop,,,Del Campo - Poletti,,,44.8227963,,,600447,,,,,,
,,,703268031,AMI,,AMIFE,,11.6074436,,,,,,bus_stop,,,Bologna - Pesci,,,44.8235729,,,600409,,,,,,
,,,703268032,AMI,,AMIFE,,11.6195805,,,,,,bus_stop,,,Fabbri - Putinati,,,44.8246423,,,600339,,,,,,
,,,703268037,AMI,,,,11.5893021,,,,,,bus_stop,,,Modena - Legnano,,,44.8476581,,,600574,,,,,,
,,11;A;356,703268041,AMI,,,,11.5783316,,,,,,bus_stop,,,Chiesuol del Fosso,yes,,44.8031527,,,600386,,,,,,
,,,703268042,AMI,,AMIFE,,11.6261095,,,,,,bus_stop,,,Porta Mare - Piazza Ariostea,,,44.8419159,,,600181,,,,,,
,,,703268043,AMI,,AMIFE,,11.618559,,,,,,bus_stop,,,Giardini INA,,,44.8382151,,,600166,,,,,,
,,,703268044,AMI,,AMIFE,,11.6102159,,,,,,bus_stop,,,Bologna - Ippodromo,,,44.8263427,,,600416,,,,,,
,,,703268045,AMI,,,,11.5991054,,,,,,bus_stop,,,Ex Dazio,,,44.8148664,,,600398,,,,,,
,,,703268047,AMI,,AMIFE,,11.6200916,,,,,,bus_stop,,,Piazzale Dante,,,44.8476708,,,600172,,,,,,
,,11,703268049,AMI,,,,11.6146783,,,,,,bus_stop,,,Canapa - Scuole,,,44.8539021,,,600544,,,,,,
,,,703268050,AMI,,AMIFE,,11.6133586,,,,,,bus_stop,,,Pesci,,,44.8208782,,,600348,,,,,,
,,,703268051,AMI,,AMIFE,,11.6068521,,,,,,bus_stop,,,Stazione Porta Reno,,,44.824939,,,600449,,,,,,
,,,703268053,AMI,,AMIFE,,11.6129131,,,,,,bus_stop,,,Cavour - Isonzo,yes,,44.8413547,,,600161,,,,,,
,,,703268054,AMI,,AMIFE,,11.6093161,,,,,,bus_stop,,,Isonzo - Autostazione,,,44.8358749,,,600153,,,,,,
,,,703268057,AMI,,AMIFE,,11.6038333,,,,,,bus_stop,,,Stazione F. S. - Scalo Merci,,,44.8420708,,,600477,,,,,,
,,,703268060,AMI,,AMIFE,,11.6190754,,,,,,bus_stop,,,Corso Porta Reno,,,44.8352555,,,600214,,,,,,
,,11;A;356,703268063,AMI,,,,11.5834213,,,,Via Bologna,,bus_stop,,,Bologna Coldiretti,,,44.8047062,,,600384,,,,,,
,,,703268064,AMI,,AMIFE,,11.6225717,no,,,,,bus_stop,,,Porta Mare - Palazzo Diamanti,no,,44.8422879,,,600180,,,,,,
,,,703268067,AMI,,,,11.5899454,,,,,,bus_stop,,,Veneziani,,,44.8157258,,,600928,,,,,,
,,,703268068,AMI,,AMIFE,,11.6157004,,,,,,bus_stop,,,Viale XXV Aprile - Viale Orlando Furioso,,,44.848105,,,600169,,,,,,
,,,703268069,AMI,,AMIFE,,11.6163428,,,,,,bus_stop,,,Fabbri - Antolini,,,44.8277418,,,600612,,,,,,
,,,703268070,AMI,,AMIFE,,11.6119077,,,,,,bus_stop,,,Isonzo - Garibaldi,,,44.8384134,,,600156,,,,,,
,,11,703268071,AMI,,,,11.6147787,,,,,,bus_stop,,,Canapa - Scuole,yes,,44.8543996,,,600543,,,,,,
,,,703268072,AMI,,,,11.6155452,,,,,,bus_stop,,,Rivana,,,44.8198542,,,600349,,,,,,
,,,703268075,AMI,,,,11.5718554,,,,,,bus_stop,,,Modena - Primo Levi,,,44.8482506,,,600580,,,,,,
,,,703268078,AMI,,,,11.5945606,,,,,,bus_stop,,,Modena - Due Abeti,,,44.8474278,,,600570,,,,,,
,,,703268080,AMI,,AMIFE,,11.6343798,,,,,,bus_stop,,,S. Rocco - Farmacia,,,44.8394914,,,600021,,,,,,
,,,703268082,AMI,,AMIFE,,11.6038826,,,,,,bus_stop,,,Piave - San Giacomo,,,44.8414356,,,600478,,,,,,
,,,703268083,AMI,,,,11.5927199,,,,,,bus_stop,,,Bologna - Luzzaschi,,,44.810836,,,600389,,,,,,
,,,703268084,AMI,,AMIFE,,11.6188834,,,,Corso Biagio Rossetti 34,,bus_stop,,,Corso B. Rossetti - Ostello,,,44.8428395,,,600177,,,,,,
,,,703268085,AMI,,AMIFE,,11.6285317,,,,,,bus_stop,,,Via Montebello - Via Borsari,,,44.8404479,,,600187,,,,,,
,,,703268086,AMI,,AMIFE,,11.6009827,,,,,,bus_stop,,,Barlaam - Geometri,,,44.829599,,,600459,,,,,,
,,,703268088,AMI,,,,11.6022661,,,,,,bus_stop,,,Bologna - Centro Commerciale Il Castello,,,44.8181449,,,600405,,,,yes,,
,,,703268090,AMI,,AMIFE,,11.6131766,,,,,,bus_stop,,,Darsena,,,44.8315201,,,600424,,,,,,
,,,703268092,AMI,,AMIFE,,11.6038004,,,,,,bus_stop,,,Argine Ducale,,,44.8336959,,,600462,,,,,,
,,,703268094,AMI,,,,11.5834667,,,,,,bus_stop,,,Mizzana,,,44.8475137,,,600576,,,,,,
,,,703268097,AMI,,AMIFE,,11.6318676,,,,,,bus_stop,,,Giovecca - Città della Salute,,,44.8323189,,,600208,,,,,,
,,,703268100,AMI,,AMIFE,,11.6346449,,,,,,bus_stop,,,S. Rocco - Fossato di Mortara,,,44.8355415,,,600019,,,,,,
,,,703268101,AMI,,AMIFE,,11.6163856,,,,,,bus_stop,,,Cavour - P. Beretta,,,44.8397199,,,600163,,,,,,
,,,717466065,,,,,11.3890804,,14C,,,,bus_stop,,,Pilastro Vecchio,,,44.5077499,,,,,,,,,
,,,717859189,,,,,12.1009825,,,,,,bus_stop,,,,,,44.145876,,,,,,,,,
,,,717928421,,,,,12.1334833,,,,,,bus_stop,,,,,,44.117194,,,,,,,,,
,,,717928423,,,,,12.1333492,,,,,,bus_stop,,,,,,44.1170978,,,,,,,,,
,,,717928429,,,,,12.1458066,,,,,,bus_stop,,,,,,44.1166331,,,,,,,,,
,,,717928453,,,,,12.145267,,,,,,bus_stop,,,,,,44.1224757,,,,,,,,,
,,,717928455,,,,,12.1455588,,,,,,bus_stop,,,,,,44.1223686,,,,,,,,,
,,,717928458,,,,,12.1470051,,,,,,bus_stop,,,,,,44.126079,,,,,,,,,
,,,717928465,,,,,12.1484497,,,,,,bus_stop,,,,,,44.134109,,,,,,,,,
,,,725020559,AMI,,,,11.5867995,,,,,,bus_stop,,,Via Trenti,,,44.840249,,,600474,,,,,,
,,,725021138,AMI,,,,11.5910654,,,,,,bus_stop,,,Arginone,,,44.8392418,,,600471,,,,,,
,,,725021182,AMI,,,,11.5903504,,,,,,bus_stop,,,Arginone,,,44.8396632,,,600470,,,,,,
,,,725021203,AMI,,,,11.5822881,,,,,,bus_stop,,,Casa Circondariale,,,44.8423466,,,600473,,,,,,
,,,725021230,AMI,,,,11.5878226,,,,,,bus_stop,,,Arginone - Gramigna,,,44.840489,,,600469,,,,,,
,,,725052443,AMI,,,,11.6322223,,,,,,bus_stop,,,Ca Colombara,,,44.7785907,,,600053,,,,,,
,,,725052445,AMI,,,,11.6409327,,,,,,bus_stop,,,Possessione Boschetto,,,44.7743304,,,600075,,,,,,
,,,725052447,AMI,,,,11.6291023,,,,,,bus_stop,,,Fabbri CAS,,,44.8129999,,,600066,,,,,,
,,,725052450,AMI,,,,11.6305497,,,,,,bus_stop,,,Fabbri Villaggio,,,44.8111729,,,600068,,,,,,
,,,725052454,AMI,,,,11.6284409,,,,,,bus_stop,,,Case Guastavillana,,,44.7806732,,,600081,,,,,,
,,,725052458,AMI,,,,11.6536862,,,,,,bus_stop,,,Villa Gulinelli,,,44.7467183,,,600108,,,,,,
,,,725052466,AMI,,,,11.6266417,,,,,,bus_stop,,,Fossanova San Marco,,,44.7873818,,,600079,,,,,,
,,,725052467,AMI,,,,11.6230993,,,,,,bus_stop,,,Torre Fossa,,,44.7926368,,,600051,,,,,,
,,,725052468,AMI,,,,11.6527795,,,,,,bus_stop,,,Ca Camparella,,,44.7503763,,,600084,,,,,,
,,,725052477,AMI,,,,11.6503792,,,,,,bus_stop,,,Possessione Vigna,,,44.7673643,,,600086,,,,,,
,,,725052479,AMI,,,,11.6195698,,,,,,bus_stop,,,Torre Fossa Sammartina,,,44.794789,,,600073,,,,,,
,,,725052483,AMI,,,,11.653608,,,,,,bus_stop,,,Gaibanella,,,44.7636633,,,600083,,,,,,
,,,725052484,AMI,,AMIFE,,11.6214365,,,,,,bus_stop,,,Fabbri Putinati,,,44.823274,,,600045,,,,,,
,,,725052489,AMI,,,,11.6374156,,,,,,bus_stop,,,Villa Melica,,,44.7768748,,,600076,,,,,,
,,,725052493,AMI,,,,11.6409273,,,,,,bus_stop,,,Possessione Boschetto,,,44.7741458,,,600055,,,,,,
,,,725052497,AMI,,,,11.6281821,,,,,,bus_stop,,,Ca Pugliese,,,44.8038319,,,600067,,,,,,
,,,725052501,AMI,,,,11.6283549,,,,,,bus_stop,,,Case Guastavillana,,,44.7805458,,,600052,,,,,,
,,,725052503,AMI,,,,11.6457402,,,,,,bus_stop,,,San Bartolomeo Possessione Barchessa,,,44.7401587,,,600106,,,,,,
,,,725052509,AMI,,,,11.6293371,,,,,,bus_stop,,,Fabbri CAS,,,44.8129866,,,600034,,,,,,
,,,725052513,AMI,,,,11.627075,,,,,,bus_stop,,,Fossanova San Biagio,,,44.7835253,,,600080,,,,,,
,,,725052518,AMI,,,,11.6525322,,,,,,bus_stop,,,Ca Camparella,,,44.7503687,,,600059,,,,,,
,,,725052519,AMI,,,,11.624157,,,,,,bus_stop,,,Fabbri Betlem,,,44.8200037,,,600069,,,,,,
,,,725052524,AMI,,,,11.6210213,,,,,,bus_stop,,,Fabbri Idrovora,,,44.7994455,,,600049,,,,,,
,,,725052527,AMI,,,,11.6503236,,,,,,bus_stop,,,Possessione Vigna,,,44.7672231,,,600057,,,,,,
,,,725052528,AMI,,,,11.619408,,,,,,bus_stop,,,Torre Fossa Sammartina,,,44.7946967,,,600050,,,,,,
,,,725052529,AMI,,,,11.6531498,,,,,,bus_stop,,,Borgo Pancaldi,,,44.7553047,,,600058,,,,,,
,,,725052530,AMI,,AMIFE,,11.6215559,,,,,,bus_stop,,,Fabbri Putinati,,,44.8233206,,,600071,,,,,,
,,,725052538,AMI,,,,11.6461502,,,,,,bus_stop,,,San Bartolomeo Possessione Barchessa,,,44.7396622,,,600107,,,,,,
,,,725052539,AMI,,,,11.6474151,,,,,,bus_stop,,,Possessione Lecciole,,,44.7696932,,,600087,,,,,,
,,,725052546,AMI,,AMIFE,,11.6223394,,,,,,bus_stop,,,Fabbri Mosconi,,,44.8220325,,,600046,,,,,,
,,,725052547,AMI,,,,11.6283968,,,,,,bus_stop,,,Ca Pugliese,,,44.8037036,,,600033,,,,,,
,,,725052550,AMI,,,,11.6322648,,,,,,bus_stop,,,Ca Colombara,,,44.7787423,,,600077,,,,,,
,,,725052554,AMI,,,,11.6375086,,,,,,bus_stop,,,Villa Melica,,,44.7767236,,,600054,,,,,,
,,,725052558,AMI,,,,11.6304124,,,,,,bus_stop,,,Fabbri Villaggio,,,44.8110918,,,600048,,,,,,
,,,725052560,AMI,,,,11.6268512,,,,,,bus_stop,,,Fossanova San Marco,,,44.7873687,,,600032,,,,,,
,,,725052564,AMI,,,,11.6270695,,,,,,bus_stop,,,Fossanova San Biagio,,,44.7830684,,,600078,,,,,,
,,,725052565,AMI,,,,11.653577,,,,,,bus_stop,,,Villa Gulinelli,,,44.7468322,,,600060,,,,,,
,,,725052576,AMI,,,,11.6211645,,,,,,bus_stop,,,Fabbri Idrovora,,,44.7993782,,,600074,,,,,,
,,,725052577,AMI,,,,11.6532115,,,,,,bus_stop,,,Gaibanella,,,44.7646122,,,600082,,,,,,
,,,725052579,AMI,,,,11.6231175,,,,,,bus_stop,,,Torre Fossa,,,44.7928072,,,600072,,,,,,
,,,725052583,AMI,,,,11.6533373,,,,,,bus_stop,,,Borgo Pancaldi,,,44.7552802,,,600085,,,,,,
,,,725052590,AMI,,,,11.6473796,,,,,,bus_stop,,,Possessione Lecciole,,,44.7695299,,,600056,,,,,,
,,,725052591,AMI,,AMIFE,,11.6224498,,,,,,bus_stop,,,Fabbri Mosconi,,,44.8220323,,,600070,,,,,,
,,,725101427,AMI,,,,11.6350054,,,,,,bus_stop,,,San Bartolomeo Campo Sportivo,,,44.7313305,,,600111,,,,,,
,,,725101448,AMI,,,,11.6305053,,,,,,bus_stop,,,San Bartolomeo Deposito Sarasini,,,44.730028,,,600026,,,,,,
,,,725101471,AMI,,,,11.6363164,,,,,,bus_stop,,,Borgo Vallone,,,44.7211604,,,600062,,,,,,
,,,725101473,AMI,,,,11.6355084,,,,,,bus_stop,,,Possessione Campo Pomaro,,,44.7237275,,,600061,,,,,,
,,,725101484,AMI,,,,11.6373399,,,,,,bus_stop,,,Case Baraldi,,,44.718175,,,600063,,,,,,
,,,725101485,AMI,,,,11.6366781,,,,,,bus_stop,,,San Bartolomeo in Bosco Centro,,,44.7326434,,,600100,,,,,,
,,,725101504,AMI,,,,11.6418422,,,,,,bus_stop,,,San Bartolomeo in Bosco Carabinieri,,,44.7346518,,,600105,,,,,,
,,,725101510,AMI,,,,11.6405356,,,,,,bus_stop,,,Spinazzino La stanga,,,44.711746,,,600119,,,,,,
,,,725101530,AMI,,,,11.6312966,,,,,,bus_stop,,,Spinazzino,,,44.7100219,,,600118,,,,,,
,,,725101534,AMI,,,,11.6348731,,,,,,bus_stop,,,Ca Gainesa,,,44.7278932,,,600113,,,,,,
,,,725101554,AMI,,,,11.6384881,,,,,,bus_stop,,,San Bartolomeo in Bosco Scuole,,,44.733374,,,600104,,,,,,
,,,725101586,AMI,,,,11.6467264,,,,,,bus_stop,,,San Bartolomeo in Bosco Magazzini,,,44.7367501,,,600102,,,,,,
,,,725101589,AMI,,,,11.631365,,,,,,bus_stop,,,Spinazzino,,,44.7099036,,,600030,,,,,,
,,,725101595,AMI,,,,11.6365207,,,,,,bus_stop,,,Borgo Vallone,,,44.7213111,,,600110,,,,,,
,,,725101596,AMI,,,,11.635598,,,,,,bus_stop,,,Possessione Campo Pomaro,,,44.7238554,,,600112,,,,,,
,,,725101628,AMI,,,,11.6355841,,,,,,bus_stop,,,San Bartolomeo Campo Sportivo,,,44.7299827,,,600115,,,,,,
,,,725101652,AMI,,,,11.6468152,,,,,,bus_stop,,,San Bartolomeo in Bosco Magazzini,,,44.7366313,,,600031,,,,,,
,,,725101661,AMI,,,,11.6419713,,,,,,bus_stop,,,Possessione Guiari,,,44.7147224,,,600064,,,,,,
,,,725101676,AMI,,,,11.6273486,,,,,,bus_stop,,,Spinazzino Consorzio,,,44.7079361,,,600117,,,,,,
,,,725101677,AMI,,,,11.6349685,,,,,,bus_stop,,,Ca Gainesa,,,44.7283914,,,600114,,,,,,
,,,725101697,AMI,,,,11.6367832,,,,,,bus_stop,,,San Bartolomeo in Bosco Centro,,,44.7324671,,,600101,,,,,,
,,,725101712,AMI,,,,11.6374865,,,,,,bus_stop,,,Case Baraldi,,,44.7182585,,,600109,,,,,,
,,,725101718,AMI,,,,11.641942,,,,,,bus_stop,,,Possessione Guiari,,,44.7149132,,,600120,,,,,,
,,,725101732,AMI,,,,11.6403577,,,,,,bus_stop,,,Spinazzino La stanga,,,44.7117965,,,600029,,,,,,
,,11,728346357,AMI,,,,11.6055168,,,,,,bus_stop,,,Bentivoglio - Industria,,,44.8676089,,,600535,,,,,,
,,,728346362,AMI,,,,11.596234,,,,,,bus_stop,,,Montedison P.le Sud,,,44.8585646,,,600488,,,,,,
,,11,728346365,AMI,,,,11.6059083,,,,,,bus_stop,,,Savonuzzi - De Amicis,yes,,44.8771738,,,600512,,,,,,
,,11,728346367,AMI,,,,11.6081796,,,,,,bus_stop,,,Savonuzzi - Piazza Buozzi,,,44.8788757,,,600510,,,,,,
,,,728346369,AMI,,,,11.6077453,,,,,,bus_stop,,,Bentivoglio - Cavalcaferrovia,yes,,44.8607367,,,600528,,,,,,
,,11,728346374,AMI,,,,11.610917,,,,,,bus_stop,,,Vicenza,,,44.8804637,,,600518,,,,,,
,,,728346377,AMI,,,,11.6069054,,,,,,bus_stop,,,Bentivoglio - Battara,,,44.8630898,,,600530,,,,,,
,,11,728346382,AMI,,,,11.6104861,,,,,,bus_stop,,,Pontevecchio - Venezia,,,44.8839755,,,600508,,,,,,
,,,728346384,AMI,,,,11.6062702,,,,,,bus_stop,,,Bentivoglio - Angelica,,,44.8652231,,,600532,,,,,,
,,11,728346389,AMI,,,,11.6064546,,,,,,bus_stop,,,Corso del Popolo - Giustizia,,,44.8731196,,,600522,,,,,,
,,11,728346397,AMI,,,,11.6088463,,,,,,bus_stop,,,Savonuzzi - Piazza Buozzi,,,44.8795463,,,600507,,,,,,
,,11,728346399,AMI,,,,11.5991784,,,,,,bus_stop,,,Vallelunga - Boicelli,,,44.8790783,,,600515,,,,,,
,,,728346401,AMI,,,,11.602176,,,,,,bus_stop,,,Solvay,,,44.8622985,,,600487,,,,,,
,,11,728346406,AMI,,,,11.5960564,,,,,,bus_stop,,,Vallelunga - Airone,,,44.8801876,,,600317,,,,,,
,,11,728346418,AMI,,,,11.6103417,,,,,,bus_stop,,,Pontevecchio - Nuova,,,44.8851108,,,600505,,,,,,
,,11,728346420,AMI,,,,11.6071878,,,,,,bus_stop,,,Corso del Popolo - Via della Miniera,,,44.8743911,,,600525,,,,,,
,,,728346424,AMI,,,,11.6075061,yes,,,,,bus_stop,,,Bentivoglio - Cavalcaferrovia,yes,,44.8604159,,,600536,,,,,,
,,11,728346429,AMI,,,,11.6105185,,,,,,bus_stop,,,Pontevecchio - Nuova,,,44.8852513,,,600506,,,,,,
,,,728346431,AMI,,,,11.6009505,,,,,,bus_stop,,,Montesud,,,44.8581056,,,600482,,,,,,
,,11,728346438,AMI,,,,11.607915,,,,,,bus_stop,,,Corso del Popolo - Via Aminta,,,44.8754087,,,600523,,,,,,
,,11,728346443,AMI,,,,11.6030109,,,,,,bus_stop,,,Romito,,,44.8774567,,,600513,,,,,,
,,,728346450,AMI,,,,11.6061944,,,,,,bus_stop,,,Bentivoglio - Angelica,,,44.8648292,,,600531,,,,,,
,,11,728346453,AMI,,,,11.6089685,,,,,,bus_stop,,,Corso del Popolo - De Amicis,,,44.8765789,,,600524,,,,,,
,,,728346456,AMI,,,,11.6013399,,,,,,bus_stop,,,Montesud,,,44.8583177,,,600483,,,,,,
,,,728346462,AMI,,,,11.6018411,,,,,,bus_stop,,,Cartiere Burgo,,,44.8601942,,,600485,,,,,,
,,,728346464,AMI,,,,11.6018955,,,,,,bus_stop,,,Solvay,,,44.8627757,,,600486,,,,,,
,,11,728346469,AMI,,,,11.6056206,,,,,,bus_stop,,,Bentivoglio - Industria,,,44.8668691,,,600529,,,,,,
,,11,728346476,AMI,,,,11.5992182,,,,,,bus_stop,,,Vallelunga - Boicelli,,,44.8788986,,,600517,,,,,,
,,,728346484,AMI,,,,11.6084481,,,,,,bus_stop,,,"Scuole Medie ""Cosmè Tura""",,,44.8631861,,,600550,,,,,,
,,11,728346489,AMI,,,,11.6090138,,,,,,bus_stop,,,Corso del Popolo - Via De Amicis,,,44.8768793,,,600521,,,,,,
,,11,728346494,AMI,,,,11.5950876,,,,,,bus_stop,,,Vallelunga - Airone,,,44.8807373,,,600318,,,,,,
,,,728346498,AMI,,,,11.6068927,,,,,,bus_stop,,,Bentivoglio - Battara,,,44.8620425,,,600534,,,,,,
,,11,728346502,AMI,,,,11.6050727,,,,,,bus_stop,,,Bentivoglio - Fiorino,,,44.869597,,,600527,,,,,,
,,11,728346511,AMI,,,,11.6100009,,,,,,bus_stop,,,S. M. Maddalena,,,44.8923884,,,646002,,,,,,
,,11,728346517,AMI,,,,11.5909749,,,,,,bus_stop,,,Vallelunga,,,44.8823746,,,600516,,,,,,
,,11,728346523,AMI,,,,11.6105301,,,,,,bus_stop,,,S. M. Maddalena - Ospedale,,,44.8933107,,,646001,,,,,,
,,11,728346526,AMI,,,,11.6103211,,,,,,bus_stop,,,Corso del Popolo - Piazza Buozzi,,,44.878711,,,600520,,,,,,
,,,728346529,AMI,,,,11.6089907,,,,,,bus_stop,,,Barco Indipendenza,,,44.8610336,,,600549,,,,,,
,,11,728346534,AMI,,,,11.6033246,,,,,,bus_stop,,,Romito,,,44.8772259,,,600514,,,,,,
,,,728346538,AMI,,,,11.6013043,,,,,,bus_stop,,,Cartiere Burgo,,,44.8596154,,,600484,,,,,,
,,11,728346541,AMI,,,,11.6101417,,,,,,bus_stop,,,Corso del Popolo - Piazza Buozzi,,,44.8782592,,,600526,,,,,,
,,11,728346548,AMI,,,,11.6058701,,,,,,bus_stop,,,Savonuzzi - De Amicis,yes,,44.8769512,,,600511,,,,,,
,,11,728346550,AMI,,,,11.6104539,,,,,,bus_stop,,,Vicenza,,,44.8808053,,,600519,,,,,,
,,11,728346560,AMI,,,,11.6107908,,,,,,bus_stop,,,S. M. Maddalena - Ospedale,,,44.8929618,,,646000,,,,,,
,,,728346564,AMI,,,,11.6087858,,,,,,bus_stop,,,Barco Indipendenza,,,44.8607494,,,600548,,,,,,
,,11,728346568,AMI,,,,11.6107397,,,,,,bus_stop,,,Pontevecchio - Venezia,,,44.8841644,,,600509,,,,,,
,,,730945300,AMI,,AMIFE,,11.5999511,,,,,,bus_stop,,,Verga - Bardellini,,,44.8215581,,,600442,,,,,,
,,,730945317,AMI,,,,11.584477,,,,,,bus_stop,,,Fiera,,,44.8149046,,,600425,,,,,,
,,,730945327,AMI,,AMIFE,,11.5972387,,,,,,bus_stop,,,Verga - Falcone,,,44.8244213,,,600443,,,,,,
,,,730945339,AMI,,,,11.5909817,,,,,,bus_stop,,,ADO,,,44.8182481,,,600402,,,,,,
,,,730945342,AMI,,,,11.5869443,,,,,,bus_stop,,,Bela Bartok,,,44.817013,,,600417,,,,,,
,,,730945347,AMI,,AMIFE,,11.6029799,,,,,,bus_stop,,,Krasnodar - Verga,,,44.8211031,,,600428,,,,,,
,,,730945352,AMI,,AMIFE,,11.596802,,,,,,bus_stop,,,Krasnodar - Nievo,,,44.8262572,,,600429,,,,,,
,,,730945361,AMI,,,,11.5898622,,,,,,bus_stop,,,Veneziani - Ferraresi,,,44.8172899,,,600414,,,,,,
,,,730945379,AMI,,,,11.5902148,,,,,,bus_stop,,,Veneziani - Ferraresi,,,44.8170114,,,600401,,,,,,
,,,730945382,AMI,,,,11.5856005,,,,,,bus_stop,,,Fiera,,,44.8152929,,,600421,,,,,,
,,,730945385,AMI,,,,11.5948578,,,,,,bus_stop,,,Verga - G. Kramer (V. Fuoco),,,44.8259517,,,600441,,,,,,
,,,730945389,AMI,,AMIFE,,11.5996458,,,,,,bus_stop,,,Krasnodar - Amicizia,,,44.8252564,,,600432,,,,,,
,,,730945401,AMI,,AMIFE,,11.6001373,,,,,,bus_stop,,,Krasnodar - Collodi,,,44.8239686,,,600433,,,,,,
,,,730945412,AMI,,AMIFE,,11.6015046,,,,,,bus_stop,,,Krasnodar - Labriola,,,44.8219765,,,600435,,,,,,
,,,730945414,AMI,,AMIFE,,11.5974189,,,,,,bus_stop,,,Verga - Falcone,,,44.8235119,,,600444,,,,,,
,,,730945426,AMI,,,,11.5866711,,,,,,bus_stop,,,Bela Bartok,,,44.8174403,,,600426,,,,,,
,,,730945427,AMI,,AMIFE,,11.6013938,,,,,,bus_stop,,,Krasnodar - De Sanctis,,,44.8230443,,,600430,,,,,,
,,,730945434,AMI,,AMIFE,,11.5984181,,,,,,bus_stop,,,Verga - Bardellini,,,44.8226553,,,600439,,,,,,
,,,730945461,AMI,,AMIFE,,11.603027,,,,,,bus_stop,,,Krasnodar - Verga,,,44.8209224,,,600437,,,,,,
,,,730945478,AMI,,,,11.590695,,,,,,bus_stop,,,ADO,,,44.8187399,,,600413,,,,,,
,,,730945482,AMI,,AMIFE,,11.5983606,,,,,,bus_stop,,,Krasnodar - Poeti,,,44.825411,,,600431,,,,,,
,,,730945491,AMI,,,,11.5949566,,,,,,bus_stop,,,Verga - G. Kramer (V. Fuoco),,,44.8255304,,,600440,,,,,,
,,,732026283,AMI,,,,11.5944113,,,,,,bus_stop,,,Arginone - Chiesa,,,44.8378334,,,600472,,,,,,
,,,732026299,AMI,,,,11.5936933,,,,,,bus_stop,,,Arginone - Chiesa,,,44.8382431,,,600468,,,,,,
,,,732026316,AMI,,AMIFE,,11.6159356,,,,,,bus_stop,,,Piangipane - Kennedy,,,44.8330662,,,600234,,,,,,
,,A,737501286,AMI,,,,11.5872684,,,,,,bus_stop,,,San Martino - Centro,,,44.778542,,,600023,,,,,,
,,A,737501294,AMI,,,,11.5948048,,,,Via Sgarbata,,bus_stop,,,Via Sgarbata - Scuole,,,44.7407135,,,600093,,,,,,
,,A,737501316,AMI,,,,11.5755596,,,,Via Corazza 4,,bus_stop,,,Via Corazza - Via Bologna,,,44.784736,,,600127,,,,,,
,,A,737501321,AMI,,,,11.584048,,,,Via Buttifredo,,bus_stop,,,Via Buttifredo - Via Corazza,,,44.7775937,,,600126,,,,,,
,,A,737501328,AMI,,,,11.5816923,,,,Via Sgarbata,,bus_stop,,,Via Sgarbata - seconda,,,44.7631703,,,600090,,,,,,
,,A,737501341,AMI,,,,11.6178288,,,,Via Sgarbata,,bus_stop,,,Via Sgarbata - Borgo Colombara,,,44.7386864,,,600036,,,,,,
,,A,737501350,AMI,,,,11.5860689,,,,Via Sgarbata,,bus_stop,,,Borgo Cuore Alberelle (Azienda agricola),,,44.7478841,,,600091,,,,,,
,,A,737501356,AMI,,,,11.5949099,,,,Via Sgarbata,,bus_stop,,,Via Sgarbata - Scuole,,,44.7407772,,,600038,,,,,,
,,A,737501362,AMI,,,,11.5871866,,,,Via Chiesa 182,,bus_stop,,,San Martino - Centro,,,44.7786642,,,600135,,,,,,
,,A,737501368,AMI,,,,11.5891506,,,,,,bus_stop,,,San Martino - Piazza Berlinguer,,,44.779393,,,600134,,,,,,
,,A,737501374,AMI,,,,11.6255985,,,,Via Sgarbata,,bus_stop,,,Via Sgarbata - Borgo Bassi,,,44.7391819,,,600035,,,,,,
,,A,737501381,AMI,,,,11.5797938,,,,Via Sgarbata,,bus_stop,,,Via Sgarbata - Ca Patina,,,44.7661664,,,600044,,,,,,
,,A,737501389,AMI,,,,11.5775681,,,,Via Corazza 26A,,bus_stop,,,San Martino - Via Corazza,,,44.7817303,,,600129,,,,,,
,,A,737501399,AMI,,,,11.5848183,,,,Via Sgarbata,,bus_stop,,,Via Sgarbata - Case Franchini (Pizzeria),,,44.7535487,,,600099,,,,,,
,,A,737501408,AMI,,,,11.5818356,,,,Via Sgarbata,,bus_stop,,,Via Sgarbata - seconda,,,44.7632176,,,600043,,,,,,
,,A,737501418,AMI,,,,11.6178457,,,,Via Sgarbata,,bus_stop,,,Via Sgarbata - Borgo Colombara,,,44.7385501,,,600095,,,,,,
,,A,737501428,AMI,,,,11.5905633,,,,,,bus_stop,,,San Martino - Piazza Berlinguer,,,44.779804,,,600131,,,,,,
,,A,737501439,AMI,,,,11.590797,,,,Via M. Bisi 23,,bus_stop,,,San Martino - Scuole,,,44.7812487,,,600133,,,,,,
,,A,737501454,AMI,,,,11.5763346,,,,Via Corazza 13,,bus_stop,,,Via Corazza - Via Bologna,,,44.7840875,,,600028,,,,,,
,,A,737501489,AMI,,,,11.6322382,,,,Via Sgarbata,,bus_stop,,,Via Sgarbata - La Molinetta,,,44.7375234,,,600097,,,,,,
,,A,737501497,AMI,,,,11.5832239,,,,Via Corazza 34,,bus_stop,,,San Martino - Cimitero,,,44.778895,,,600130,,,,,,
,,,737501500,AMI,,,,11.5851235,,,,,,bus_stop,,,San Martino - Dancing,,,44.7780181,,,600022,,,,,,
,,356;A,737501505,AMI,,,,11.5722413,,,,,,bus_stop,,,Uccellino,,,44.7908774,,,600141,,,,,,
,,A,737501509,AMI,,,,11.5877841,,,,Via Sgarbata,,bus_stop,,,Borgo Sgarbata,,,44.7436167,,,600092,,,,,,
,,A,737501513,AMI,,,,11.5795188,,,,Via Buttifredo,,bus_stop,,,Via Buttifredo - Via Bologna,,,44.7731511,,,600025,,,,,,
,,A,737501527,AMI,,,,11.5862512,,,,Via Sgarbata,,bus_stop,,,Borgo Cuore Alberelle (Azienda agricola),,,44.7478226,,,600040,,,,,,
,,A,737501535,AMI,,,,11.6027846,,,,Via Sgarbata,,bus_stop,,,Via Sgarbata - Casette,,,44.7404701,,,600037,,,,,,
,,A,737501537,AMI,,,,11.6028434,,,,Via Sgarbata,,bus_stop,,,Via Sgarbata - Casette,,,44.7403158,,,600094,,,,,,
,,A,737501541,AMI,,,,11.5794278,,,,Via Buttifredo,,bus_stop,,,Via Buttifredo - Via Bologna,,,44.7732582,,,600138,,,,,,
,,A,737501547,AMI,,,,11.5773723,,,,Via Corazza 19,,bus_stop,,,San Martino - Via Corazza,,,44.7818709,,,600128,,,,,,
,,A,737501558,AMI,,,,11.5833745,,,,Via Sgarbata,,bus_stop,,,Borgo Ricovero,,,44.7601999,,,600042,,,,,,
,,A,737501560,AMI,,,,11.5850375,,,,Via Sgarbata,,bus_stop,,,Via Sgarbata - Case Franchini (Pizzeria),,,44.7535157,,,600041,,,,,,
,,A,737501578,AMI,,,,11.5832806,,,,Via Sgarbata,,bus_stop,,,Borgo Ricovero,,,44.7601427,,,600089,,,,,,
,,A,737501588,AMI,,,,11.5926733,,,,Via del Fabbro 2,,bus_stop,,,San Martino - Via del Fabbro,,,44.7815326,,,600132,,,,,,
,,A,737501593,AMI,,,,11.5879735,,,,Via Sgarbata,,bus_stop,,,Borgo Sgarbata,,,44.7435804,,,600039,,,,,,
,,A,737501595,AMI,,,,11.6348904,,,,Via Sgarbata,,bus_stop,,,San Bartolomeo - Cimitero,,,44.7359057,,,600098,,,,,,
,,A,737501603,AMI,,,,11.5843791,,,,Via Buttifredo,,bus_stop,,,Via Buttifredo - Via Corazza,,,44.7777736,,,600125,,,,,,
,,A,737501609,AMI,,,,11.6256462,,,,Via Sgarbata,,bus_stop,,,Via Sgarbata - Borgo Bassi,,,44.7390557,,,600096,,,,,,
,,A,737501625,AMI,,,,11.5825879,,,,Via Buttifredo,,bus_stop,,,Via Buttifredo,,,44.7748631,,,600137,,,,,,
,,A,737501633,AMI,,,,11.5797033,,,,Via Sgarbata,,bus_stop,,,Via Sgarbata - Ca Patina,,,44.7660474,,,600088,,,,,,
,,A,737501637,AMI,,,,11.5850403,,,,Via Chiesa 250,,bus_stop,,,San Martino - Dancing,,,44.7781933,,,600136,,,,,,
,,A,737501660,AMI,,,,11.632295,,,,Via Sgarbata,,bus_stop,,,Via Sgarbata - La Molinetta,,,44.7375835,,,600027,,,,,,
,,356;A,737501667,AMI,,,,11.5725291,,,,,,bus_stop,,,Uccellino,,,44.7907486,,,600140,,,,,,
,,A,737501675,AMI,,,,11.5827372,,,,Via Buttifredo,,bus_stop,,,Via Buttifredo,,,44.7747799,,,600024,,,,,,
,,A,738302921,AMI,,,,11.6347887,,,,Via Sgarbata,,bus_stop,,,San Bartolomeo - Cimitero,,,44.7358324,,,,,,,,,
,,,739405870,AMI,,,,11.5510572,,,,,,bus_stop,,,Via Bellini,,,44.8504373,,,600567,,,,,,
,,,739405903,AMI,,,,11.560335,,,,,,bus_stop,,,Cassana - Alfieri,,,44.8509963,,,600583,,,,,,
,,,739405905,AMI,,,,11.5507178,,,,,,bus_stop,,,Porotto - Via Cento (Canalina),,,44.8520948,,,600755,,,,,,
,,,739405908,AMI,,,,11.5488714,,,,Via Ungaretti,,bus_stop,,,Porotto,,,44.8445478,,,600561,,,,,,
,,,739405919,AMI,,,,11.5495996,,,,,,bus_stop,,,Via Ladino,,,44.8472099,,,600563,,,,,,
,,,739405922,AMI,,,,11.5486398,,,,Via Ungaretti,,bus_stop,,,Ungaretti,,,44.8429595,,,600562,,,,,,
,,,739405927,AMI,,,,11.5647093,,,,,,bus_stop,,,Cassana - Pesa,,,44.849565,,,600581,,,,,,
,,,739405936,AMI,,,,11.5500549,,,,,,bus_stop,,,Porotto - Via Cento (Canalina),,,44.8520212,,,600568,,,,,,
,,,739405937,AMI,,,,11.5543262,,,,,,bus_stop,,,X Martiri,,,44.8514194,,,600565,,,,,,
,,,739405946,AMI,,,,11.5523356,,,,,,bus_stop,,,Ladino - Bellini,,,44.8504477,,,600558,,,,,,
,,,739405953,AMI,,,,11.5510418,,,,,,bus_stop,,,Ladino - Scuole elementari,,,44.8492587,,,600564,,,,,,
,,,739405958,AMI,,,,11.5504107,,,,,,bus_stop,,,Ladino - Scuole elementari,,,44.8487662,,,600560,,,,,,
,,,739405974,AMI,,,,11.5490753,,,,,,bus_stop,,,Via Ladino,,,44.8465267,,,600559,,,,,,
,,,739405976,AMI,,,,11.5576179,,,,,,bus_stop,,,Cassana - Chiesa,,,44.8518349,,,600584,,,,,,
,,,739405988,AMI,,,,11.5640047,,,,,,bus_stop,,,Cassana - Pesa,,,44.849998,,,600582,,,,,,
,,,739405992,AMI,,,,11.5493026,,,,,,bus_stop,,,Porotto - Teatro Verdi,,,44.8508606,,,600566,,,,,,
,,,739406006,AMI,,,,11.5548322,,,,,,bus_stop,,,Via Modena - Carabinieri,,,44.8525639,,,600586,,,,,,
,,,739406011,AMI,,,,11.5582429,,,,,,bus_stop,,,Cassana - Chiesa,,,44.851506,,,600585,,,,,,
,,,739406012,AMI,,,,11.5505115,,,,,,bus_stop,,,Porotto - Via Cento (Canalina),,,44.852168,,,600754,,,,,,
,,,739514916,AMI,,AMIFE,,11.6765798,,,,,,bus_stop,,,Cocomaro di Cona,,,44.8146809,,,600357,,,,,,
,,,739514924,AMI,,AMIFE,,11.7144436,,,,,,bus_stop,,,Cona - Chiesa Fienil Rosso,,,44.8046606,,,600368,,,,,,
,,,739514936,AMI,,AMIFE,,11.6407083,,,,,,bus_stop,,,Comacchio - Val Mezzano,,,44.8214701,,,600313,,,,,,
,,,739514952,AMI,,AMIFE,,11.6470072,,,,,,bus_stop,,,Villa Fulvia,,,44.8207987,,,600312,,,,,,
,,,739514980,AMI,,AMIFE,,11.6791249,,,,,,bus_stop,,,Cocomaro di Cona - Via Colombara,,,44.8138605,,,600655,,,,,,
,,,739514984,AMI,,AMIFE,,11.6952258,,,,,,bus_stop,,,Cona - Idrovora,,,44.8079338,,,600361,,,,,,
,,,739514995,AMI,,AMIFE,,11.6488432,,,,,,bus_stop,,,Bivio San Bartolo,,,44.8202884,,,600352,,,,,,
,,,739515025,AMI,,AMIFE,,11.6761523,,,,,,bus_stop,,,Cocomaro di Cona,,,44.8148884,,,600358,,,,,,
,,,739515029,AMI,,AMIFE,,11.6410254,,,,,,bus_stop,,,Comacchio - Val Mezzano,,,44.8214758,,,600314,,,,,,
,,,739515039,AMI,,AMIFE,,11.6462025,,,,,,bus_stop,,,Villa Fulvia,,,44.8205725,,,600315,,,,,,
,,,739515065,AMI,,AMIFE,,11.6951241,,,,,,bus_stop,,,Cona - Idrovora,,,44.8080746,,,600362,,,,,,
,,,739515078,AMI,,AMIFE,,11.6378997,,,,,,bus_stop,,,Comacchio - Mandorlo,,,44.82245,,,600316,,,,,,
,,,739515099,AMI,,AMIFE,,11.6693204,,,,,,bus_stop,,,La Punta,,,44.8172846,,,600355,,,,,,
,,,739515111,AMI,,AMIFE,,11.6379842,,,,,,bus_stop,,,Comacchio - Mandorlo,,,44.8222675,,,600311,,,,,,
,,,739515143,AMI,,AMIFE,,11.7123107,,,,,,bus_stop,,,Cona - Chiesa,,,44.8050798,,,600638,,,,,,
,,,739515158,AMI,,AMIFE,,11.6339247,,,,,,bus_stop,,,Comacchio - Ponte Caldirolo,,,44.8226732,,,600322,,,,,,
,,,739515173,AMI,,AMIFE,,11.6693683,,,,,,bus_stop,,,La Punta,,,44.8173557,,,600356,,,,,,
,,,739515210,AMI,,AMIFE,,11.7116926,,,,,,bus_stop,,,Cona - Chiesa,,,44.8051789,,,600637,,,,,,
,,,739515218,AMI,,AMIFE,,11.7079033,,,,,,bus_stop,,,Cona - Via Trigaboli,,,44.8069049,,,600652,,,,,,
,,,739515224,AMI,,AMIFE,,11.6339758,,,,,,bus_stop,,,Comacchio - Ponte Caldirolo,,,44.8226146,,,600321,,,,,,
,,,739515236,AMI,,AMIFE,,11.6826055,,,,,,bus_stop,,,Cocomaro di Cona - Via Golena,,,44.8124228,,,600360,,,,,,
,,,739515249,AMI,,AMIFE,,11.6629481,,,,,,bus_stop,,,Citta' del Ragazzo,,,44.818954,,,600353,,,,,,
,,,739515275,AMI,,AMIFE,,11.7077255,,,,,,bus_stop,,,Cona,,,44.8061565,,,600365,,,,,,
,,,739515286,AMI,,AMIFE,,11.7079812,,,,Via Trigaboli 29,,bus_stop,,,Cona - Via Trigaboli,,,44.8070467,,,600651,,,,,,
,,,739515324,AMI,,AMIFE,,11.6827024,,,,,,bus_stop,,,Cocomaro di Cona - Via Golena,,,44.8122962,,,600359,,,,,,
,,,739515330,AMI,,AMIFE,,11.7041325,,,,,,bus_stop,,,Cona - Casa vecchia,,,44.8061882,,,600363,,,,,,
,,,739515341,AMI,,AMIFE,,11.6627868,,,,,,bus_stop,,,Citta' del Ragazzo,,,44.8191512,,,600354,,,,,,
,,,739515375,AMI,,AMIFE,,11.7079138,,,,,,bus_stop,,,Cona,,,44.8062662,,,600366,,,,,,
,,,739515378,AMI,,AMIFE,,11.7145114,,,,,,bus_stop,,,Cona - Chiesa Fienil Rosso,,,44.8045712,,,600367,,,,,,
,,,739515400,AMI,,AMIFE,,11.6790272,,,,,,bus_stop,,,Cocomaro di Cona - Via Colombara,,,44.8137448,,,600656,,,,,,
,,,739515403,AMI,,AMIFE,,11.70271,,,,,,bus_stop,,,Cona - Casa vecchia,,,44.8065106,,,600364,,,,,,
,,,739515413,AMI,,AMIFE,,11.6485767,,,,,,bus_stop,,,Bivio San Bartolo,,,44.8202428,,,600351,,,,,,
,,600R,747030578,ATC,,,,11.8072052,,,,Via Massafiscaglia 312,,bus_stop,,,Villanova,,,44.835124,,,607138,Copparo,,,,,
,,1500A;600R;900A,747030584,ATC,,,,11.8184466,,,,Via Pomposa,,bus_stop,,,Via Pomposa - 15 Km,,,44.8169087,,,600920,Ferrara,,,,,
,,1500R;600A;900R,747030608,ATC,,,,11.7894789,,,,Via Del Mare F522,,bus_stop,,,Bivio Albarea,,,44.8241276,,,600661,Ferrara,,,,,
,,1500R;600A;900R,747030623,ATC,,,,11.867146,,,,Via Del Mare 537,,bus_stop,,,Bivio Parasacco,,,44.8063369,,,600913,Ferrara,,,,,
,,1500A;600R;900A,747030633,ATC,,,,11.8668929,,,,Via Del Mare F537,,bus_stop,,,Bivio Parasacco,,,44.8062436,,,600914,Ferrara,,,,,
,,9/BA,747030637,ATC,,AMIFE,,11.7103331,,,,Via Tambellina 197,,bus_stop,,,Cona,,,44.8064761,,,600649,Ferrara,,,,,
,,600R,747030651,ATC,,,,11.765336,,,,Via Massafiscaglia 130,,bus_stop,,,Ponte Fossalta,,,44.8467938,,,607144,Copparo,,,,,
,,600A;900R,747030656,ATC,,,,11.7492279,,,,Via Romea Nord,,bus_stop,,,Ponte Addolorata,,,44.8457914,,,600693,Ferrara,,,,,
,,1200R;1400A;600R,747030660,ATC,,,,11.8682486,,,,Via Nevatica F4,,bus_stop,,,Bivio Codiferro,,,44.832503,,,609017,Formignana,,,,,
,,600R;900A,747030673,ATC,,,,11.7159679,,,,Via Tambellina,,bus_stop,,,Contrapo' Bivio Codrea,,,44.8274998,,,600705,Ferrara,,,,,
,,600R,747030680,ATC,,,,11.8758386,,,,Via Brazzolo 24,,bus_stop,,,Possesione Di Mezzo,,,44.8485099,,,609006,Formignana,,,,,
,,600R;900A,747030690,ATC,,,,11.7960075,,,,Ferrara - Formignana F112,,bus_stop,,,Botona,,,44.8417571,,,607052,Copparo,,,,,
,,600A;900R,747030707,ATC,,,,11.7693137,,,,Via Massafiscaglia 309,,bus_stop,,,Viconovo,,,44.8445135,,,607141,Copparo,,,,,
,,1500R;600A;900R,747030719,ATC,,,,11.8359274,,,,Via Pomposa,,bus_stop,,,Bivio Denore,,,44.8132558,,,600917,Ferrara,,,,,
,,600R,747030740,ATC,,,,11.8663226,,,,Via Brazzolo 6,,bus_stop,,,Bar Lanternino,,,44.8418804,,,609026,Jolanda di Savoia,,,,,
,,1400R;5000A;600A;900A;900R,747030743,ATC,,,,11.9001586,,,,Via Dello Sport 1,,bus_stop,,,Tresigallo Ospedale,,,44.8159977,,,624025,Goro,,,,,
,,600A;900R,747030751,ATC,,,,11.740014,,,,Ferrara - Formignana 241,,bus_stop,,,Borgo Tarapino,,,44.8437207,,,600695,Ferrara,,,,,
,,600R;900A,747030764,ATC,,,,11.8091506,,,,Ferrara - Formignana F78,,bus_stop,,,S.S.Pietro Chiesa,,,44.8386729,,,607055,Copparo,,,,,
,,1200R;1400A;600R,747030781,ATC,,,,11.8852484,,,,Via Nevatica 21,,bus_stop,,,Tresigallo Frigo,,,44.8261919,,,609015,Formignana,,,,,
,,1500A;5000R;600R;900A,747030790,ATC,,,,11.7167461,,,,Via Pomposa,,bus_stop,,,Bivio Codrea,,,44.8268532,,,600674,Ferrara,,,,,
,,600A;900R,747030793,ATC,,,,11.807353,,,,Via Massafiscaglia 479,,bus_stop,,,Villanova,,,44.8351395,,,607137,Copparo,,,,,
,,1500R;600A;900R,747030794,ATC,,,,11.7702905,,,,Via del Mare 441,,bus_stop,,,Via del Mare 441,,,44.8261476,,,600686,Ferrara,,,,,
,,1500R;600A;900R,747030805,ATC,,,,11.817707,,,,Via Pomposa,,bus_stop,,,Via Pomposa - 15 Km,,,44.8172177,,,600919,Ferrara,,,,,
,,1500R;5000A;600A;900R,747030810,ATC,,,,11.8595715,,,,Via Pomposa,,bus_stop,,,Bivio Valpagliaro,,,44.8083484,,,600915,Ferrara,,,,,
,,9/BA,747030815,ATC,,AMIFE,,11.7165597,,,,Via Tambellina 154,,bus_stop,,,Codrea,,,44.8193722,,,600647,Ferrara,,,,,
,,600R;900A,747030819,ATC,,,,11.7496068,,,,Via Romea Nord,,bus_stop,,,Ponte Addolorata,,,44.8457357,,,600694,Ferrara,,,,,
,,1200R;1400A;600A;600R,747030822,ATC,,,,11.8558294,,,,Copparo - Migliarino 1,,bus_stop,,,Formignana Carabinieri,,,44.8419084,,,609020,Formignana,,,,,
,,1200R;1500R;2100A;600A;900R,747030824,ATC,,,,11.8877851,,,,Via Del Mare 153,,bus_stop,,,Saipo,,,44.816381,,,624003,Tresigallo,,,,,
,,1200A;1400R;600A,747030829,ATC,,,,11.8385319,,,,Via Torre,,bus_stop,,,La Mensa,,,44.8351398,,,607038,Copparo,,,,,
,,600A;900R,747030833,ATC,,,,11.8246708,,,,Via A.Soffritti 11,,bus_stop,,,Bivio Denore,,,44.8354771,,,600687,Ferrara,,,,,
,,1200R;4500A;600A;600R;900A,747030841,ATC,,,,11.814482,,,,Pza Repubblica 36,,bus_stop,,,Sabbioncello San Pietro,,,44.843043,,,607057,Copparo,,,,,
,,900A,747030856,ATC,,,,11.8523308,,,,Via Massafiscaglia 506,,bus_stop,,,Ca' Grillanda,,,44.8183987,,,600707,Ferrara,,,,,
,,600R,747030866,ATC,,,,11.8585151,,,,Copparo - Migliarino F63,,bus_stop,,,Formignana Rotonda,,,44.8381503,,,609019,Formignana,,,,,
,,1200A;1200R;1400A;1400R;1500A;1500R;2100A;2100R;5000A;5000R;600A;600R;900A;900R,747030868,ATC,,,,11.8968951,,,,P.Zza Del Popolo 5,,bus_stop,,,Tresigallo,,,44.8193628,,,624020,Tresigallo,,,,,
,,600R;900A,747030871,ATC,,,,11.7407574,,,,Ferrara - Formignana F249,,bus_stop,,,Borgo Tarapino,,,44.843743,,,600697,Ferrara,,,,,
,,600R;900A,747030877,ATC,,,,11.7671135,,,,Ferrara - Formignana 153,,bus_stop,,,Fossalta Chiesa,,,44.8498729,,,607046,Copparo,,,,,
,,600A,747030880,ATC,,,,11.8761678,,,,Via Brazzolo F24,,bus_stop,,,Possesione Di Mezzo,,,44.8487587,,,609007,Formignana,,,,,
,,1500R;5000A;600A;900R,747030883,ATC,,,,11.7536373,,,,Via Del Mare 401,,bus_stop,,,Bivio Viconovo,,,44.8272157,,,600684,Ferrara,,,,,
,,600A;600R;900A;900R,747030887,ATC,,,,11.8320715,,,,Via Massafiscaglia F543,,bus_stop,,,Denore,,,44.8319545,,,600689,Ferrara,,,,,
,,1500R;5000A;600A;900R,747030889,ATC,,AMIFE,,11.807525,,,,Via Pomposa,,bus_stop,,,Bivio Villanova,,,44.8196926,,,600659,Ferrara,,,,,
,,1500A;5000R;600R;900A,747030901,ATC,,,,11.8603588,,,,Via Pomposa,,bus_stop,,,Bivio Valpagliaro,,,44.8079869,,,600916,Ferrara,,,,,
,,9/BR;900A;900R,747030903,ATC,,AMIFE,,11.7159139,,,,Via Tambellina 132,,bus_stop,,,Codrea Via Traversa,,,44.8212712,,,600880,Ferrara,,,,,
,,1200A;1400R;600A,747030908,ATC,,,,11.868326,,,,Via Nevatica 4,,bus_stop,,,Bivio Codiferro,,,44.8326538,,,609016,Formignana,,,,,
,,9/BR;900A;900R,747030910,ATC,,,,11.7155996,,,,Via Tambellina,,bus_stop,,,Codrea Bivio Rossonia,,,44.8260054,,,600912,Ferrara,,,,,
,,600A;900R,747030917,ATC,,,,11.7781226,,,,Via Massafiscaglia,,bus_stop,,,Borgo Passo,,,44.8418143,,,607139,Copparo,,,,,
,,1200R;1400A;600R,747030921,ATC,,,,11.8312607,,,,Ferrara - Formignana 60,,bus_stop,,,Gardi,,,44.8382414,,,607041,Copparo,,,,,
,,1500R;600A;900R,747030922,ATC,,,,11.7355893,,,,Via Del Mare 369,,bus_stop,,,Bivio Contrapo',,,44.8269539,,,600679,Ferrara,,,,,
,,4500A;600A,747030931,ATC,,,,11.8089661,,,,Ferrara - Formignana 78,,bus_stop,,,S.S.Pietro Chiesa,,,44.8387989,,,607056,Copparo,,,,,
,,1200A;1500A;2100R;5000R;600R;900A,747030938,ATC,,,,11.8754031,,,,Via Del Mare 11,,bus_stop,,,Final Di Rero,,,44.8079854,,,624008,Tresigallo,,,,,
,,1200R;1500R;2100A;5000A;600A;900R,747030943,ATC,,,,11.8751295,,,,Via Del Mare 8,,bus_stop,,,Final Di Rero,,,44.8080444,,,624007,Tresigallo,,,,,
,,600R,747030948,ATC,,,,11.8695527,,,,Via Brazzolo 8,,bus_stop,,,Borgo Vaccari,,,44.8431793,,,609004,Formignana,,,,,
,,600A,747030949,ATC,,,,11.9095525,,,,Via Del Mare 285,,bus_stop,,,Palazzo Pio,,,44.8152073,,,624023,Tresigallo,,,,,
,,600A;900R,747030952,ATC,,,,11.7342,,,,Ferrara - Formignana 209,,bus_stop,,,Borgo Feroci,,,44.8419359,,,600698,Ferrara,,,,,
,,1200A;1400R;600A,747030960,ATC,,,,11.8609387,,,,Piazza Brighenti 5,,bus_stop,,,Formignana,,,44.8423778,,,609024,Formignana,,,,,
,,1500R;600A;900R,747030963,ATC,,,,11.7264502,,,,Via Del Mare F344,,bus_stop,,,Palazzina,,,44.8268779,,,600677,Ferrara,,,,,
,,600R;900A,747030968,ATC,,,,11.77957,,,,Ferrara - Formignana 139,,bus_stop,,,Bastarolo,,,44.8448588,,,607050,Copparo,,,,,
,,1500A;600R;900A,747030969,ATC,,,,11.790336,,,,Via Del Mare 477,,bus_stop,,,Bivio Albarea,,,44.8238214,,,600662,Ferrara,,,,,
,,1500A;600R;900A,747030977,ATC,,,,11.7266934,,,,Via Del Mare 344,,bus_stop,,,Palazzina,,,44.8267866,,,600676,Ferrara,,,,,
,,900R,747030982,ATC,,,,11.8524061,,,,Via Massafiscaglia 813,,bus_stop,,,Ca' Grillanda,,,44.8187086,,,600708,Ferrara,,,,,
,,1200A;1500A;2100R;600R;900A,747030983,ATC,,,,11.880504,,,,Via Del Mare 4,,bus_stop,,,Palmolive,,,44.8107262,,,624006,Tresigallo,,,,,
,,9/BA,747030990,ATC,,AMIFE,,11.7160752,,,,Via Tambellina 87,,bus_stop,,,Codrea Arci,,,44.8168503,,,600648,Ferrara,,,,,
,,1200R;1400A;600R,747030995,ATC,,,,11.8748349,,,,Via Nevatica 40,,bus_stop,,,Via Nevatica 40,,,44.8272978,,,609013,Formignana,,,,,
,,600R;900A,747031001,ATC,,,,11.7232591,,,,Ferrara - Formignana F77,,bus_stop,,,Contrapo',,,44.8421289,,,600701,Ferrara,,,,,
,,1200A;1400R;600A,747031007,ATC,,,,11.8309373,,,,Ferrara - Formignana F60,,bus_stop,,,Gardi,,,44.8384499,,,607040,Copparo,,,,,
,,600R,747031013,ATC,,,,11.7787926,,,,Via Massafiscaglia,,bus_stop,,,Borgo Passo,,,44.8416675,,,607140,Copparo,,,,,
,,4500R;600R;900A,747031020,ATC,,,,11.7658368,,,,Ferrara - Formignana 9,,bus_stop,,,Fossalta,,,44.8500665,,,607049,Copparo,,,,,
,,1500R;600A;900R,747031021,ATC,,,,11.7782633,,,,Via Del Mare 461,,bus_stop,,,Parolino,,,44.8256651,,,600663,Ferrara,,,,,
,,1200R;4500A,747031028,ATC,,,,11.8125259,,,,Via Marchesa,,bus_stop,,,Via Marchesa 54,,,44.8510913,,,607082,Copparo,,,,,
,,900R,747031037,ATC,,,,11.843779,,,,Via Massafiscaglia 761,,bus_stop,,,Ca' Orsetto,,,44.8229191,,,609001,Formignana,,,,,
,,9/BR;900A;900R,747031042,ATC,,AMIFE,,11.7124726,,,,Via Tambellina F173,,bus_stop,,,Il Sostegno,,,44.8093947,,,600883,Ferrara,,,,,
,,600A,747031043,ATC,,,,11.8690145,,,,Via Brazzolo 73,,bus_stop,,,Borgo Vaccari,,,44.8430304,,,609005,Formignana,,,,,
,,1200A,747031044,ATC,,,,11.8965378,,,,Piazza Del Popolo,,bus_stop,,,Tresigallo,,,44.8193896,,,624019,Tresigallo,,,,,
,,600R;900A,747031046,ATC,,,,11.7349319,,,,Ferrara - Formignana F215,,bus_stop,,,Borgo Feroci,,,44.8421136,,,600699,Ferrara,,,,,
,,600A,747031049,ATC,,,,11.8586895,,,,Copparo - Migliarino 61,,bus_stop,,,Formignana Rotonda,,,44.8384878,,,609012,Formignana,,,,,
,,1200A;1400R;600A,747031058,ATC,,,,11.8850803,,,,Via Nevatica 91,,bus_stop,,,Tresigallo Frigo,,,44.8263163,,,609014,Formignana,,,,,
,,4500A;600A,747031060,ATC,,,,11.766785,,,,Ferrara - Formignana 184,,bus_stop,,,Fossalta Chiesa,,,44.8501633,,,607047,Copparo,,,,,
,,1500A;600R;900A,747031061,ATC,,,,11.7446519,,,,Via del Mare F381,,bus_stop,,,Via del Mare 381,,,44.8268798,,,600680,Ferrara,,,,,
,,1200R;600R,747031067,ATC,,,,11.8257374,,,,Ferrara - Formignana 44,,bus_stop,,,Sabbioncello San Vittore,,,44.838643,,,607045,Copparo,,,,,
,,1500A;5000R;600R;900A,747031075,ATC,,AMIFE,,11.8089362,,,,Via Pomposa,,bus_stop,,,Bivio Villanova,,,44.8192054,,,600660,Ferrara,,,,,
,,5000R,747031080,FER,,,,11.8686105,,,,Via Pomposa,,bus_stop,,,Sp 15 - Bivio Valpagliaro - Dir. Vaccolino,,,44.8058831,,,600654,Ferrara,,,,,
,,9/BR;900A;900R,747031082,ATC,,AMIFE,,11.7162854,,,,Via Tambellina 184,,bus_stop,,,Codrea,,,44.817987,,,600881,Ferrara,,,,,
,,1200R;1400A;600A;600R,747031090,ATC,,,,11.8518827,,,,Copparo - Migliarino 63,,bus_stop,,,Formignana Distributore,,,44.8423691,,,609023,Formignana,,,,,
,,1400A;5000R;600R;900R,747031091,ATC,,,,11.9001712,,,,Via Dello Sport F1,,bus_stop,,,Tresigallo Ospedale,,,44.8162139,,,624002,Tresigallo,,,,,
,,600A;900R,747031093,ATC,,,,11.7234612,,,,Ferrara - Formignana 93,,bus_stop,,,Contrapo',,,44.8422072,,,600700,Ferrara,,,,,
,,1200A;1400A;1400R;600A,747031097,ATC,,,,11.825508,,,,Ferrara - Formignana 50,,bus_stop,,,Sabbioncello San Vittore,,,44.8387061,,,607043,Copparo,,,,,
,,600A;900R,747031108,ATC,,,,11.7926664,,,,Via Massafiscaglia 409,,bus_stop,,,Albarea,,,44.8394512,,,600691,Ferrara,,,,,
,,1500A;600R;900A,747031116,ATC,,,,11.7707663,,,,Via del Mare F441,,bus_stop,,,Via del Mare 441,,,44.8259829,,,600685,Ferrara,,,,,
,,9/BR;900A;900R,747031125,ATC,,AMIFE,,11.7151231,,,,Via Tambellina 228,,bus_stop,,,Codrea Arci,,,44.8157282,,,600882,Ferrara,,,,,
,,600A;900R,747031134,ATC,,,,11.7648151,,,,Ferrara - Formignana F130,,bus_stop,,,Ponte Fossalta,,,44.8469202,,,607143,Copparo,,,,,
,,600A,747031135,ATC,,,,11.8659181,,,,Via Brazzolo 43,,bus_stop,,,Bar Lanternino,,,44.8419414,,,609003,Formignana,,,,,
,,1200R;1400A;600R,747031144,ATC,,,,11.8391168,,,,Via Torre,,bus_stop,,,La Mensa,,,44.8348957,,,607039,Copparo,,,,,
,,1200A,747031150,ATC,,,,11.8144873,,,,Via Marchesa 4,,bus_stop,,,Sabbioncello San Pietro,,,44.8434861,,,607080,Copparo,,,,,
,,1500A;5000R;600R;900A,747031151,ATC,,,,11.7542045,,,,Via Del Mare F407,,bus_stop,,,Bivio Viconovo,,,44.8270204,,,600683,Ferrara,,,,,
,,600A,747031158,ATC,,,,11.7653147,,,,Ferrara - Formignana 18,,bus_stop,,,Fossalta,,,44.849875,,,607048,Copparo,,,,,
,,1200R;1500R;2100A;600A;900R,747031170,ATC,,,,11.8799459,,,,Via Del Mare 59,,bus_stop,,,Palmolive,,,44.8105793,,,624005,Tresigallo,,,,,
,,1200A;1400R;600A,747031175,ATC,,,,11.8512738,,,,Copparo - Migliarino 60,,bus_stop,,,Formignana Distributore,,,44.8425331,,,609022,Formignana,,,,,
,,600R;900R,747031176,ATC,,,,11.9106629,,,,Via Del Mare 172,,bus_stop,,,Palazzo Pio,,,44.8152239,,,624024,Goro,,,,,
,,600A;900R,747031178,ATC,,,,11.7187352,,,,Bivio Passo Segni - Correggio 58,,bus_stop,,,Bivio Baura,,,44.8379816,,,600702,Ferrara,,,,,
,,600R,747031181,ATC,,,,11.7929586,,,,Via Massafiscaglia 248,,bus_stop,,,Albarea,,,44.8392634,,,600692,Ferrara,,,,,
,,1200A,747031188,ATC,,,,11.8126787,,,,Via Marchesa 54,,bus_stop,,,Via Marchesa 54,,,44.8511323,,,607081,Copparo,,,,,
,,1500R;5000A;600A;900R,747031189,ATC,,,,11.7165552,,,,Via Pomposa,,bus_stop,,,Bivio Codrea,,,44.8270464,,,600675,Ferrara,,,,,
,,600R,747031193,ATC,,,,11.769238,,,,Via Massafiscaglia,,bus_stop,,,Viconovo,,,44.8444574,,,607142,Copparo,,,,,
,,1500A;600R;900A,747031200,ATC,,,,11.7804255,,,,Via Del Mare 450,,bus_stop,,,Parolino,,,44.825376,,,600664,Ferrara,,,,,
,,5000A,747031205,FER,,,,11.8687318,,,,Via Pomposa,,bus_stop,,,Sp 15 - Bivio Valpagliaro - Dir. Ferrara,,,44.8060331,,,600653,Ferrara,,,,,
,,9/BR;900A;900R,747031210,ATC,,AMIFE,,11.7102536,,,,Via Tambellina 326,,bus_stop,,,Cona,,,44.8066664,,,600650,Ferrara,,,,,
,,1200A;1400R;600A,747031211,ATC,,,,11.8551345,,,,Copparo - Migliarino 22,,bus_stop,,,Formignana Carabinieri,,,44.8419759,,,609021,Formignana,,,,,
,,600R;900A,747031215,ATC,,,,11.7652157,,,,Ponte Di Viconovo,,bus_stop,,,Ponte Fossalta,,,44.8469263,,,607145,Copparo,,,,,
,,600A;900R,747031219,ATC,,,,11.7157041,,,,Via Tambellina,,bus_stop,,,Contrapo' Bivio Codrea,,,44.8273479,,,600704,Ferrara,,,,,
,,600R,747031222,ATC,,,,11.8250894,,,,Via Massafiscaglia 537,,bus_stop,,,Bivio Denore,,,44.8354189,,,600688,Ferrara,,,,,
,,1500A;600R;900A,747031225,ATC,,,,11.7358034,,,,Via Del Mare F369,,bus_stop,,,Bivio Contrapo',,,44.8267215,,,600678,Ferrara,,,,,
,,4500A;600A,747031231,ATC,,,,11.7955441,,,,Ferrara - Formignana 112,,bus_stop,,,Botona,,,44.8420736,,,607053,Copparo,,,,,
,,1500A;600R;900A,747031242,ATC,,,,11.8366894,,,,Via Pomposa,,bus_stop,,,Bivio Denore,,,44.812833,,,600918,Ferrara,,,,,
,,900A,747031243,ATC,,,,11.8438342,,,,Via Massafiscaglia 458,,bus_stop,,,Ca' Orsetto,,,44.8227559,,,609000,Formignana,,,,,
,,1200A;1400R;600A,747031249,ATC,,,,11.8745767,,,,Via Nevatica F40,,bus_stop,,,Via Nevatica 40,,,44.8276085,,,609010,Formignana,,,,,
,,1200A;1500A;2100R;600R;900A,747031250,ATC,,,,11.8888901,,,,Tresigallo - Jolanda Di Savoia 11,,bus_stop,,,Saipo,,,44.8172329,,,624004,Tresigallo,,,,,
,,600R;900A,747031253,ATC,,,,11.7188422,,,,Bivio Passo Segni - Correggio F58,,bus_stop,,,Bivio Baura,,,44.838161,,,600703,Ferrara,,,,,
,,4500A;600A,747031257,ATC,,,,11.7785499,,,,Ferrara - Formignana 142,,bus_stop,,,Bastarolo,,,44.8451586,,,607051,Copparo,,,,,
,,1500R;600A;900R,747031263,ATC,,,,11.7440606,,,,Via del Mare 381,,bus_stop,,,Via del Mare 381,,,44.8270786,,,600682,Ferrara,,,,,
,,01A;01R,747869799,ATC,,AMIFE,,11.6453307,,,,Via Dei Frutteti 143,,bus_stop,,,Frutteti,,,44.8347764,,,600236,Ferrara,,,,,
,,01R,747869803,ATC,,AMIFE,,11.6414163,,,,Via Dei Frutteti 71\A,,bus_stop,,,Frutteti - Salice,,,44.835702,,,600237,Ferrara,,,,,
,,01A,747869810,ATC,,AMIFE,,11.641632,,,,Via Dei Frutteti 130,,bus_stop,,,Frutteti - Salice,,,44.8355124,,,600242,Ferrara,,,,,
,,01R,747869817,ATC,,AMIFE,,11.6398533,,,,Via Dei Frutteti F 78,,bus_stop,,,Frutteti - Melo,,,44.8361142,,,600239,Ferrara,,,,,
,,01A,747869820,ATC,,AMIFE,,11.6393971,,,,Via Dei Frutteti 78,,bus_stop,,,Frutteti - Melo,,,44.8361017,,,600240,Ferrara,,,,,
,,01R,747869828,ATC,,AMIFE,,11.6366838,,,,Via Dei Frutteti 3,,bus_stop,,,Frutteti - Caldirolo,,,44.836907,,,600241,Ferrara,,,,,
,,01A,747869834,ATC,,AMIFE,,11.6366161,,,,Via Dei Frutteti F 3,,bus_stop,,,Frutteti - Caldirolo,,,44.8368317,,,600238,Ferrara,,,,,
,,01R;07A;07R,748838487,ATC,,AMIFE,,11.6446195,,,,Copparo 105,,bus_stop,,,Copparo - Morari,,,44.8456793,,,600257,Ferrara,,,,,
,,01R;07A;4500R,748838583,ATC,,AMIFE,,11.6360254,,,,Via Caldirolo 140,,bus_stop,,,Caldirolo,,,44.8396425,,,600243,Ferrara,,,,,
,,,748838589,,,,,11.6483322,,,,,,bus_stop,,,Centro Commerciale Le Mura,,,44.8461005,,,,Ferrara,,,,,
,,01R;07A;13A;NavR;SUPPLR,748838592,ATC,,AMIFE,,11.6379175,,,,Via Giovanni Xxiii 55,,bus_stop,,,Via Giovanni XXIII,,,44.8420539,,,600602,Ferrara,,,,,
,,01A;07A;13R;SUPPLA,748838611,ATC,,AMIFE,,11.641426,,,,Copparo 64,,bus_stop,,,Copparo - Turoldo,,,44.8451383,,,600254,Ferrara,,,,,
,,13A,748838616,,,,,11.649216,,,,,,bus_stop,,,Centro Comm.Le Le Mura,,,44.8462121,,,600927,Ferrara,,,,,
,,01A;1300R;13R;4500R;SUPPLA,748838627,ATC,,AMIFE,,11.6396636,,,,Via Borgo Punta 92,,bus_stop,,,Borgo Punta,,,44.8437474,,,600251,Ferrara,,,,,
,,01A,748838631,ATC,,AMIFE,,11.6358406,,,,Via Caldirolo 91,,bus_stop,,,Caldirolo,,,44.8396991,,,600244,Ferrara,,,,,
,,01A;07A;07R;13R;SUPPLA,748838634,ATC,,AMIFE,,11.6454434,,,,Copparo 122,,bus_stop,,,Copparo - Morari,,,44.8456355,,,600256,Ferrara,,,,,
,,01A;07R;13R;SUPPLA,748838638,ATC,,AMIFE,,11.636976,,,,Via Giovanni Xxiii 36,,bus_stop,,,Via Giovanni XXIII,,,44.8417934,,,600601,Ferrara,,,,,
,,01R;07R,748838640,ATC,,AMIFE,,11.6424528,,,,Copparo F 86,,bus_stop,,,Copparo - Turoldo,,,44.8453894,,,600255,Ferrara,,,,,
,,01R;1300A;13A;4500A;NavR;SUPPLR,748838651,ATC,,AMIFE,,11.6395889,,,,Via Borgo Punta 193,,bus_stop,,,Borgo Punta,,,44.8432414,,,600250,Ferrara,,,,,
,,03cA,750797637,ATC,,AMIFE,,11.6055556,,,,Via Foro Boario 32,,bus_stop,,,Foro Boario,,,44.8278512,,,600451,Ferrara,,,,,
,,03cA;SUPPLA;SUPPLR,750797643,ATC,,AMIFE,,11.6171852,,,,Contrada Del Mirasole,,bus_stop,,,Mirasole - Arianuova,,,44.8456929,,Contrada del Mirasole,600175,Ferrara,,,,,
,,04cR,750797647,ATC,,AMIFE,,11.6055582,,,,Via Foro Boario F24,,bus_stop,,,Foro Boario,,,44.8269231,,,600452,Ferrara,,,,,
,,03cA;SUPPLA;SUPPLR,750797653,ATC,,AMIFE,,11.624318,,,,Via Palestro 63,,bus_stop,,,Palestro - Mascheraio,,,44.8398747,,,600183,Ferrara,,,,,
,,03cA;SUPPLA;SUPPLR,750797678,ATC,,AMIFE,,11.623357,,,,Via Palestro 35,,bus_stop,,,Palestro - De Pisis,,,44.8382705,,,600184,Ferrara,,,,,
,,03cA;SUPPLA;SUPPLR,750797685,ATC,,AMIFE,,11.6166698,,,,Via Ariosto 57,,bus_stop,,,Ariosto - B. Rossetti,,,44.843518,,Via Ludovico Ariosto,600176,Ferrara,,,,,
,,04cR;SUPPLA;SUPPLR,750797688,ATC,,AMIFE,,11.6050359,,,,Via Foro Boario 87,,bus_stop,,,Foro Boario - Supermercato,,,44.8291947,,,600454,Ferrara,,,,,
,,03cA;SUPPLA,750797694,ATC,,AMIFE,,11.60447,,,,Via Foro Boario 140,,bus_stop,,,Foro Boario - Argine Ducale,,,44.8326179,,,600455,Ferrara,,,,,
,,02A;02R,751093251,ATC,,AMIFE,,11.6333253,,,,Via Giorgio De Chirico F16,,bus_stop,,,Via De Chirico - Giardini,,,44.8210232,,,600324,Ferrara,,,,,
,,02A,751093270,ATC,,AMIFE,,11.6233557,,,,Via C.Mayr 126,,bus_stop,,,Porta San Pietro,,,44.8298913,,,600222,Ferrara,,,,,
,,02A,751093347,ATC,,AMIFE,,11.6200121,,,,Via C.Mayr 76,,bus_stop,,,Carlo Mayr - Piazza Verdi,,,44.8316446,,,600218,Ferrara,,,,,
,,02A;06R;13R;1500R;1800A;1800fA;1900A;1900fR;2200A;2500A;2500R;5000A;5100A;5100R;6/BR;600A;900A;900R;NavR;SUPPLA,751093365,ATC,,AMIFE,,11.6291412,,,,Vle Alfonso I D'Este 82,,bus_stop,,,San Maurelio,,,44.8243989,,,600200,Ferrara,,,,,
,,02A;02R,751093373,ATC,,AMIFE,,11.6336512,,,,Via Giorgio De Chirico 16,,bus_stop,,,Via De Chirico - Giardini,,,44.8209608,,,600323,Ferrara,,,,,
,,02A,751093382,ATC,,AMIFE,,11.6273265,,,,Via Xx Settembre F 117,,bus_stop,,,Museo di Spina,,,44.8273894,,,600226,Ferrara,,,,,
,,02A;1300A;1500A;1800R;1800fR;1900R;1900fR;4500A;SUPPLR,751093393,ATC,,AMIFE,,11.6025281,yes,,,Via Darsena 77,,bus_stop,,,Darsena - San Giacomo,yes,,44.8372418,,,600594,Ferrara,,,,,
,,02A,751093407,ATC,,AMIFE,,11.6416447,,,,Via Naviglio 24,,bus_stop,,,Via Naviglio,,,44.8264224,,,600299,Ferrara,,,,,
,,02A,751093414,ATC,,AMIFE,,11.6361666,,,,Via Paracelso 5,,bus_stop,,,Polonia - Caldirolo,,,44.8263692,,,600300,Ferrara,,,,,
,,02R;SUPPLR,751093424,ATC,,AMIFE,,11.6216007,,,,Via C.Mayr 159,,bus_stop,,,Carlo Mayr - Gioco del Pallone,,,44.8308374,,,600221,Ferrara,,,,,
,,02R;1300R;1500R;1800A;1900A;1900fR;3000R;4500R;NavA;SUPPLA;SUPPLR,751093432,ATC,,AMIFE,,11.6030403,yes,,,Via Darsena 168,,bus_stop,,,Darsena - San Giacomo,yes,,44.8371962,,,600592,Ferrara,,,,,
,,02R;06A;1500A;1800R;1800fR;1900R;1900fR;2200R;2500A;2500R;5000R;600R;900A;SUPPLA,751093440,ATC,,AMIFE,,11.6296937,,,,Vle Alfonso I D'Este F 8,,bus_stop,,,San Maurelio,,,44.824553,,,600199,Ferrara,,,,,
,,02R,751093451,ATC,,AMIFE,,11.6297122,,,,Via Xx Settembre 189,,bus_stop,,,Porta Romana,,,44.8265928,,,600228,Ferrara,,,,,
,,02A;02R,751093460,ATC,,,,11.6330191,,,,Via Boschetto 22,,bus_stop,,,Via Boschetto,,,44.8191662,,,600325,Ferrara,,,,,
,,02A;02R,751093467,ATC,,AMIFE,,11.6368265,,,,Via Polonia 14,,bus_stop,,,Paracelso,,,44.8251614,,,600301,Ferrara,,,,,
,,02A,751093476,ATC,,AMIFE,,11.6183982,,,,Via C.Mayr 40\A,,bus_stop,,,Carlo Mayr - San Romano,,,44.8328534,,,600216,Ferrara,,,,,
,,02A,751093483,ATC,,AMIFE,,11.6055241,no,,,Via Darsena,,bus_stop,,,Darsena - IV Novembre,no,,44.8358535,,,600593,Ferrara,,,,,
,,02R,751093500,ATC,,AMIFE,,11.624446,,,,Via Xx Settembre 65,,bus_stop,,,Via XX Settembre - Via Ghisiglieri,,,44.8285995,,,600225,Ferrara,,,,,
,,02A;02R,751093516,ATC,,AMIFE,,11.6411812,,,,Vle Olanda 27,,bus_stop,,,Viale Olanda,,,44.8270285,,,600297,Ferrara,,,,,
,,02R,751093529,ATC,,AMIFE,,11.6235442,,,,Via Porta S.Pietro 59,,bus_stop,,,Porta San Pietro,,,44.8295483,,,600223,Ferrara,,,,,
,,02R;SUPPLR,751093536,ATC,,AMIFE,,11.6197226,,,,Via C.Mayr 107,,bus_stop,,,Carlo Mayr - Piazza Verdi,,,44.8319996,,,600219,Ferrara,,,,,
,,02R,751093553,ATC,,AMIFE,,11.626864,,,,Via Xx Settembre 117,,bus_stop,,,Museo di Spina,,,44.82771,,,600227,Ferrara,,,,,
,,02A,751093560,ATC,,AMIFE,,11.6300066,,,,Via Porta Romana 10,,bus_stop,,,Porta Romana,,,44.8261851,,,600201,Ferrara,,,,,
,,02R;SUPPLR,751093586,ATC,,AMIFE,,11.6329152,,,,Via Colombarola 57,,bus_stop,,,Colombarola,,,44.8247636,,,600303,Ferrara,,,,,
,,02R,751093592,ATC,,AMIFE,,11.6390008,,,,Via Polonia 79,,bus_stop,,,Polonia - Belgio,,,44.8257335,,,600298,Ferrara,,,,,
,,02A,751093610,ATC,,AMIFE,,11.6242983,,,,Via Xx Settembre 54,,bus_stop,,,XX Settembre - Ghisiglieri,,,44.8284948,,,600224,Ferrara,,,,,
,,02A;13R,751093638,ATC,,AMIFE,,11.6335051,,,,Via Colombarola 78,,bus_stop,,,Colombarola,,,44.8246427,,,600302,Ferrara,,,,,
,,02A,751093643,ATC,,AMIFE,,11.6218402,,,,Via C.Mayr 106,,bus_stop,,,Carlo Mayr - Gioco del Pallone,,,44.8305931,,,600220,Ferrara,,,,,
,,08A;SUPPLR,752657955,ATC,,AMIFE,,11.6064193,,,,Via G.Picelli 2,,bus_stop,,,Picelli,,,44.851634,,,600554,Ferrara,,,,,
,,07A;1300A;NavR;SUPPLR,752658149,ATC,,,,11.6442949,,,,Via Dei Calzolai 147,,bus_stop,,,Bivio Malborghetto,,,44.859203,,,600269,Ferrara,,,,,
,,08R,752658169,ATC,,,,11.6088134,,,,Via Dell'Indipendenza 44,,bus_stop,,,Marsala,,,44.8592206,,,600547,Ferrara,,,,,
,,011A;011R;08A;3300A;4000A;4000R;SUPPLR,752658176,ATC,,AMIFE,,11.5994354,,,,Via G.Marconi F23,,bus_stop,,,Marconi - Righi,,,44.8487133,,,600556,Ferrara,,,,,
,,07A,752658178,ATC,,AMIFE,,11.6434103,,,,Via Morante E. 4,,bus_stop,,,Morante - Copparo,,,44.8447599,,,600605,Ferrara,,,,,
,,09R;1500A;4500R;5000R;600R;9/BR;900A;SUPPLA,752658180,ATC,,AMIFE,,11.6394619,,,,Via Pomposa 94,,bus_stop,,,Pomposa - Jugoslavia,,,44.8287915,,,600293,Ferrara,,,,,
,,08R,752658193,ATC,,,,11.6081783,,,,Via Bentivoglio 180,,bus_stop,,,Bentivoglio - Guercino,,,44.8581984,,,600538,Ferrara,,,,,
,,07A;07R;SUPPLA;SUPPLR,752658204,ATC,,,,11.6476679,,,,Via Dei Gelsomini 2,,bus_stop,,,Gelsomini - Conca,,,44.8597729,,,600596,Ferrara,,,,,
,,08R,752658213,ATC,,AMIFE,,11.6040167,,,,Via Padova 34,,bus_stop,,,Padova - Savonuzzi,,,44.8504669,,,600503,Ferrara,,,,,
,,07R,752658223,ATC,,AMIFE,,11.6438157,,,,Via Morante E. Fr. 4,,bus_stop,,,Morante - Copparo,,,44.8447653,,,600606,Ferrara,,,,,
,,09A;9/BA;SUPPLR,752658227,ATC,,AMIFE,,11.6359738,,,,Via Pomposa F38,,bus_stop,,,Pomposa - La Nave,,,44.8305728,,,600296,Ferrara,,,,,
,,07A;1300A;NavR;SUPPLR,752658234,ATC,,,,11.6390918,,,,Via Dei Calzolai 67,,bus_stop,,,Calzolai - Correggioli,,,44.8541066,,,600271,Ferrara,,,,,
,,08A,752658254,ATC,,,,11.6085297,,,,Via Marsala 4,,bus_stop,,,Marsala,,,44.8588269,,,600551,Ferrara,,,,,
,,07A;07R;SUPPLA;SUPPLR,752658261,ATC,,,,11.6482804,,,,Via Kallethea 1,,bus_stop,,,Kallethea,,,44.8642191,,,600595,Ferrara,,,,,
,,08A;SUPPLR,752658262,ATC,,AMIFE,,11.604534,,,,Via Padova 38,,bus_stop,,,Padova - Savonuzzi,,,44.8506348,,,600504,Ferrara,,,,,
,,07R;NavA;SUPPLA;SUPPLR,752658272,ATC,,,,11.6396628,,,,Via Dei Calzolai 98,,bus_stop,,,Calzolai - Correggioli,,,44.8542708,,,600270,Ferrara,,,,,
,,07A;07R;SUPPLA;SUPPLR,752658286,ATC,,,,11.6465812,,,,,,bus_stop,,,Agrifoglio - Conca,,,44.8599513,,,600274,Ferrara,,,,,
,,08R,752658291,ATC,,,,11.6087645,,,,Via Bentivoglio 204,,bus_stop,,,Bentivoglio - Scarsellino,,,44.8564049,,,600540,Ferrara,,,,,
,,07R;1300R;NavA;SUPPLA;SUPPLR,752658296,ATC,,,,11.6448285,,,,Via Dei Calzolai 134,,bus_stop,,,Bivio Malborghetto,,,44.8594879,,,600272,Ferrara,,,,,
,,08A;SUPPLA;SUPPLR,752658297,ATC,,AMIFE,,11.6012839,,,,Via L.Galvani 45,,bus_stop,,,Galvani - Marconi,,,44.8511099,,,600500,Ferrara,,,,,
,,07A;13A;4500A;4500R;NavR;SUPPLR,752658305,ATC,,AMIFE,,11.638883,,,,Via Dei Calzolai 19,,bus_stop,,,Calzolai - Zanatta,,,44.8465155,,,600599,Ferrara,,,,,
,,07R;SUPPLA;SUPPLR,752658311,ATC,,AMIFE,,11.6087304,,,,Cso Piave 21,,bus_stop,,,Piave - V. Veneto,,,44.8389212,,Corso Piave,600145,Ferrara,,,,,
,,08R,752658320,ATC,,,,11.608246,,,,Via S.Allende 125,,bus_stop,,,Allende - Medini,,,44.853854,,,600553,Ferrara,,,,,
,,07A;07R;SUPPLA;SUPPLR,752658328,ATC,,,,11.6480205,,,,Via Dei Gelsomini 18,,bus_stop,,,Gelsomini - Gladioli,,,44.8612866,,,600597,Ferrara,,,,,
,,07R;SUPPLA;SUPPLR,752658334,ATC,,AMIFE,,11.6068357,,,,Cso Piave 31,,bus_stop,,,Stadio,,,44.8398227,,Corso Piave,600143,Ferrara,,,,,
,,08A;SUPPLR,752658345,ATC,,,,11.6087496,,,,Via Bentivoglio 239,,bus_stop,,,Bentivoglio - Scarsellino,,,44.8570026,,,600539,Ferrara,,,,,
,,07R;NavA;SUPPLA;SUPPLR,752658349,ATC,,AMIFE,,11.6383303,,,,Via Dei Calzolai 54,,bus_stop,,,Calzolai - Pannonius,,,44.8500544,,,600268,Ferrara,,,,,
,,08A;SUPPLR,752658354,ATC,,AMIFE,,11.6026132,,,,Via L.Galvani 11,,bus_stop,,,Galvani - Padova,,,44.8505637,,,600502,Ferrara,,,,,
,,07R,752658357,ATC,,AMIFE,,11.6399169,,,,Via Don G.Zanardi 157,,bus_stop,,,Borgo Punta - Suore,,,44.8416178,,,600252,Ferrara,,,,,
,,08A;SUPPLR,752658374,ATC,,,,11.6085308,,,,Via S.Allende F137,,bus_stop,,,Allende - Medini,,,44.854053,,,600552,Ferrara,,,,,
,,07A,752658380,ATC,,AMIFE,,11.6411432,,,,Via Mafalda Favero 3,,bus_stop,,,Favero,,,44.8404228,,,600609,Ferrara,,,,,
,,07R;NavA;SUPPLA;SUPPLR,752658386,ATC,,,,11.6526038,,,,Via Conca 272,,bus_stop,,,Conca - S. Margherita,,,44.8565774,,,600275,Ferrara,,,,,
,,07A;07R;NavA;NavR;SUPPLA;SUPPLR,752658405,ATC,,,,11.654571,,,,Via Conca 83,,bus_stop,,,Malborghetto,,,44.8568955,,,600276,Ferrara,,,,,
,,08R,752658410,ATC,,AMIFE,,11.6016318,,,,Via L.Galvani 46,,bus_stop,,,Galvani - Marconi,,,44.8511967,,,600501,Ferrara,,,,,
,,07A,752658412,ATC,,AMIFE,,11.6400497,,,,Via Don G.Zanardi 62,,bus_stop,,,Borgo Punta - Suore,,,44.8419835,,,600249,Ferrara,,,,,
,,09R;SUPPLA,752658413,ATC,,AMIFE,,11.6365385,,,,Via Pomposa 52,,bus_stop,,,Pomposa - La Nave,,,44.8301623,,,600295,Ferrara,,,,,
,,08R,752658424,ATC,,AMIFE,,11.6063268,,,,Via G.Picelli 1,,bus_stop,,,Picelli,,,44.8518739,,,600555,Ferrara,,,,,
,,07A;NavR;SUPPLR,752658431,ATC,,AMIFE,,11.6382195,,,,Via Dei Calzolai 37,,bus_stop,,,Calzolai - Pannonius,,,44.8497256,,,600273,Ferrara,,,,,
,,07R,752658437,ATC,,AMIFE,,11.6410753,,,,Via Mafalda Favero 2,,bus_stop,,,Favero,,,44.8403237,,,600610,Ferrara,,,,,
,,07A;NavR,752658441,ATC,,AMIFE,,11.6091546,,,,Cso Piave 18,,bus_stop,,,Piave - V. Veneto,,,44.8389137,,Corso Piave,600144,Ferrara,,,,,
,,07A;NavR;SUPPLR,752658445,ATC,,,,11.6527621,,,,Via Conca F272,,bus_stop,,,Conca - S. Margherita,,,44.8566897,,,600277,Ferrara,,,,,
,,07A;07R;SUPPLA;SUPPLR,752658454,ATC,,,,11.6472638,,,,"Via Agrifoglio 53, Angolo Via Formia",,bus_stop,,,Agrifoglio - Formia,,,44.8627318,,,600598,Ferrara,,,,,
,,011R;08R;3300A;4000A;4000R;5100R,752658458,ATC,,AMIFE,,11.5991753,,,,Via G.Marconi 23,,bus_stop,,,Marconi - Righi,,,44.8490437,,,600557,Ferrara,,,,,
,,09A;1500R;4500A;5000A;600A;9/BA;900A;900R;SUPPLR,752658469,ATC,,AMIFE,,11.6388693,,,,Via Pomposa F90,,bus_stop,,,Pomposa - Jugoslavia,,,44.8292605,,,600294,Ferrara,,,,,
,,07A;NavR,752658475,ATC,,AMIFE,,11.6075167,,,,Cso Piave F 29,,bus_stop,,,Stadio,,,44.8396105,,Corso Piave,600142,Ferrara,,,,,
,,07R;SUPPLA,752658476,ATC,,AMIFE,,11.6390842,,,,Via Dei Calzolai Fr. 19,,bus_stop,,,Calzolai - Zanatta,,,44.8467171,,,600600,Ferrara,,,,,
,,,759358763,,,,,12.0505868,,,,,,bus_stop,,,,,,44.2186493,,,,,,,,,
,,,759358786,,,,,12.0498625,,,,,,bus_stop,,,,,,44.2179866,,,,,,,,,
,,,759358793,,,,,12.0503731,,,,,,bus_stop,,,,,,44.2186765,,,,,,,,,
,,4500A,760259947,ATC,,,,11.6523227,,,,Ferrara - Formignana 137,extra,bus_stop,,,Pontegradella - Passerella,,,44.8344143,,,600657,Ferrara,,,,,
,,13A;SUPPLR,760259962,ATC,,,,11.661297,,,,Via Pioppa 15,,bus_stop,,,Via Pioppa - Via Copparo,,,44.8465184,,,600265,Ferrara,,,,,
,,10R;13A;SUPPLR,760259965,ATC,,,,11.6627163,,,,Via Pioppa - Chiesa,,bus_stop,,,Pontegradella,,,44.8393819,,,600267,Ferrara,,,,,
,,4500R,760259987,ATC,,,,11.6524866,,,,Ferrara - Formignana F137,extra,bus_stop,,,Pontegradella - Passerella,,,44.8343946,,,600761,Ferrara,,,,,
,,10A;10R;13R;SUPPLA,760259988,ATC,,,,11.6613542,,,,Via Pioppa F 19,,bus_stop,,,Pioppa - Mongardi,,,44.8458097,,,600266,Ferrara,,,,,
,,4500R,760259994,ATC,,,,11.6614884,,,,Via Pontegradella F371,extra,bus_stop,,,Pontegradela Centro,,,44.8381208,,,600855,Ferrara,,,,,
,,10R,760260023,ATC,,AMIFE,,11.6442177,,,,Via Dei Cedri 26,,bus_stop,,,Cedri - S. Contardo d'Este,,,44.8331524,,,600620,Ferrara,,,,,
,,,760260034,ATC,,,,11.6506282,,,,,,bus_stop,,,Eligio Mari,,,44.8286384,,,600618,Ferrara,,,,,
,,10A,760260049,ATC,,AMIFE,,11.6443864,,,,Via Dei Cedri Fr. 26,,bus_stop,,,Cedri - S. Contardo d'Este,,,44.8331468,,,600621,Ferrara,,,,,
,,10R,760260052,ATC,,AMIFE,,11.639969,,,,Via Turchi Gaetano Fr. 2,,bus_stop,,,Turchi,,,44.8335594,,,600625,Ferrara,,,,,
,,09R;4500R;SUPPLA,760260074,ATC,,AMIFE,,11.642646,,,,Via Pontegradella 26,,bus_stop,,,Pontegradella - ITI,,,44.8290931,,,600590,Ferrara,,,,,
,,10A,760260089,ATC,,AMIFE,,11.642407,,,,Via Dei Cedri Fr. 4,,bus_stop,,,Cedri - Siepe,,,44.834276,,,600623,Ferrara,,,,,
,,10A,760260092,ATC,,AMIFE,,11.6399718,,,,Via Turchi Gaetano 2,,bus_stop,,,Turchi,,,44.8336868,,,600624,Ferrara,,,,,
,,10A;10R;13R;SUPPLA,760260104,ATC,,,,11.6619601,,,,Via Pioppa 148,,bus_stop,,,Pontegradella,,,44.8392081,,,600262,Ferrara,,,,,
,,09A,760260106,ATC,,,,11.6485469,,,,,,bus_stop,,,Mari - Caretti,,,44.8288288,,,600615,Ferrara,,,,,
,,10A;10R;13R;SUPPLA,760260107,ATC,,,,11.6621605,,,,Via Pioppa 102,,bus_stop,,,Pioppa - Scuole,,,44.8418746,,,600264,Ferrara,,,,,
,,09A;4500A;SUPPLR,760260110,ATC,,AMIFE,,11.6435472,,,,Via Pontegradella 31,,bus_stop,,,Pontegradella - ITI,,,44.8298645,,,600589,Ferrara,,,,,
,,10R,760260121,ATC,,AMIFE,,11.6420882,,,,Via Dei Cedri 2-A,,bus_stop,,,Cedri - Siepe,,,44.8342499,,,600622,Ferrara,,,,,
,,09R,760260144,ATC,,,,11.6489681,,,,,,bus_stop,,,Mari - Caretti,,,44.8287071,,,600616,Ferrara,,,,,
,,10R;13A;SUPPLR,760260145,ATC,,,,11.6627094,,,,Via Pioppa 109,,bus_stop,,,Pioppa - Scuole,,,44.842779,,,600263,Ferrara,,,,,
,,10R,760260150,ATC,,,,11.6601664,,,,Via Pontegradella Fr. 303,,bus_stop,,,Pontegradella Centro,,,44.8377883,,,600619,Ferrara,,,,,
,,1200A;1200R;1300A;1300R;1400A;1400R;4500A;4500R,760300864,ATC,,,,11.823541,,,,Via Aldo Moro 17,,bus_stop,,,Copparo Autostazione,,,44.8921793,,,607032,Copparo,,,,,
,,1200A,760300885,ATC,,,,11.8190895,,,,Vicolo Primo Maggio 233,,bus_stop,,,Berco,,,44.8915533,,,607022,Copparo,,,,,
,,4500A,760300890,ATC,,,,11.7971263,,,,Copparo 54,,bus_stop,,,Primicello,,,44.8894846,,,607065,Copparo,,,,,
,,1200R;1300R;4500A;4500R,760300906,ATC,,,,11.8199892,,,,V.Le Moro A. 7,,bus_stop,,,Copparo Viale Moro,,,44.8922118,,,607001,Copparo,,,,,
,,4500R,760300912,ATC,,,,11.804307,,,,Copparo 29,,bus_stop,,,Copparo Ex.Maglificio,,,44.8892882,,,607054,Copparo,,,,,
,,4500A;4500R,760300922,ATC,,,,11.8192753,,,,V.Le Moro A. 10,,bus_stop,,,Copparo Viale Moro,,,44.8923084,,,607011,Copparo,,,,,
,,4500R,760300927,ATC,,,,11.7972839,,,,Copparo 63,,bus_stop,,,Primicello,,,44.8894533,,,607076,Copparo,,,,,
,,4500A,760300931,ATC,,,,11.8059053,,,,Copparo F25,,bus_stop,,,Copparo Ex.Maglificio,,,44.8892639,,,607042,Copparo,,,,,
,,,761469728,,,,,12.0642439,,,,,,bus_stop,,,,,,44.2179405,,,,,,,,,
,,,762624353,,,,,12.0607116,,,,,,bus_stop,,,,,,44.2191412,,,,,,,,,
,,9/BA,763109410,ATC,,AMIFE,,11.6441732,,,,Via Pomposa,,bus_stop,,,Pasta Ricci,,,44.827622,,,600292,Ferrara,,,,,
,,13R;9/BA;9/BR;SUPPLA;SUPPLR,763109443,ATC,,,,11.6682686,,,,,,bus_stop,,,Via Crispa - Via Pioppa,,,44.8330037,,,600278,Ferrara,,,,,
,,1500A;600R;9/BR;900A,763109460,ATC,,,,11.6857747,,,,Via Del Mare 296,,bus_stop,,,Casa Bianca,,,44.8269639,,,600670,Ferrara,,,,,
,,1500A;600R;9/BR;900A,763109487,ATC,,,,11.6545039,,,,Via Pomposa,,bus_stop,,,Casa Di Riposo - Bivio Prinella,,,44.8269512,,,600289,Ferrara,,,,,
,,9/BA;9/BR;SUPPLR,763109492,ATC,,,,11.6587868,,,,Via Pioppa 329,,bus_stop,,,Via Pioppa - Ca Ceresa,,,44.8276926,,,600288,Ferrara,,,,,
,,13A;13R;9/BA;9/BR;SUPPLA;SUPPLR,763109518,ATC,,,,11.6803262,,,,,,bus_stop,,,Focomorto,,,44.8326847,,,600279,Ferrara,,,,,
,,1500A;600R;9/BR;900A,763109521,ATC,,,,11.7017146,,,,Via Del Mare 314,,bus_stop,,,Casa Magrini,,,44.8270399,,,600672,Ferrara,,,,,
,,1500R;600A;9/BA;900R,763109575,ATC,,,,11.7014495,,,,Via Del Mare 315,,bus_stop,,,Casa Magrini,,,44.827193,,,600673,Ferrara,,,,,
,,1500R;600A;9/BA;900R,763109598,ATC,,,,11.6799378,,,,Via Del Mare F278,,bus_stop,,,La Vigna,,,44.8265791,,,600668,Ferrara,,,,,
,,13A;1500R;600A;9/BA;900A;900R,763109625,ATC,,,,11.6544824,,,,Via Pomposa,,bus_stop,,,Casa Di Riposo - Bivio Prinella,,,44.8271471,,,600290,Ferrara,,,,,
,,13A;9/BA;9/BR;SUPPLA,763109632,ATC,,,,11.6586521,,,,Via Pioppa 342,,bus_stop,,,Via Pioppa - Ca Ceresa,,,44.8275521,,,600287,Ferrara,,,,,
,,13R;9/BA;9/BR;SUPPLA;SUPPLR,763109655,ATC,,,,11.6794072,,,,,,bus_stop,,,Via Crispa - Focomorto,,,44.8326674,,,600282,Ferrara,,,,,
,,13A;9/BA;9/BR;SUPPLR,763109670,ATC,,,,11.6666551,,,,,,bus_stop,,,Via Crispa - Via Pioppa,,,44.8334457,,,600284,Ferrara,,,,,
,,13A;9/BA;9/BR;SUPPLA,763109715,ATC,,,,11.659308,,,,Via Pioppa,,bus_stop,,,Via Pioppa - Via della Crispa,,,44.8309451,,,600285,Ferrara,,,,,
,,1500R;600A;9/BA;900R,763109733,ATC,,,,11.6749258,,,,Via Del Mare F260,,bus_stop,,,Bivio Focomorto,,,44.8261015,,,600666,Ferrara,,,,,
,,13A;9/BA;9/BR;SUPPLR,763109768,ATC,,,,11.6744171,,,,,,bus_stop,,,Via Crispa,,,44.8326847,,,600283,Ferrara,,,,,
,,9/BA;9/BR;SUPPLR,763109826,ATC,,,,11.6594602,,,,Via Pioppa,,bus_stop,,,Via Pioppa - Via della Crispa,,,44.8309714,,,600286,Ferrara,,,,,
,,13R;9/BA;9/BR;SUPPLA;SUPPLR,763109888,ATC,,,,11.6751575,,,,,,bus_stop,,,Via Crispa,,,44.8325042,,,600280,Ferrara,,,,,
,,1500A;600R;9/BR;900A,763109914,ATC,,,,11.6794381,,,,Via Del Mare 276,,bus_stop,,,La Vigna,,,44.8263657,,,600667,Ferrara,,,,,
,,9/BR,763109949,ATC,,AMIFE,,11.6452963,,,,Via Pomposa,,bus_stop,,,Pasta Ricci,,,44.82744,,,600291,Ferrara,,,,,
,,1500A;600R;9/BR;900A,763109956,ATC,,,,11.6753655,,,,Via Del Mare 260,,bus_stop,,,Bivio Focomorto,,,44.8260512,,,600665,Ferrara,,,,,
,,13A;9/BA;9/BR;SUPPLR,763110030,ATC,,,,11.6794537,,,,,,bus_stop,,,Via Crispa - Focomorto,,,44.8327326,,,600281,Ferrara,,,,,
,,1500R;600A;9/BA;900R,763110034,ATC,,,,11.6850646,,,,Via Del Mare 273,,bus_stop,,,Casa Bianca,,,44.8269942,,,600671,Ferrara,,,,,
,,"14, 21, 61, 89",763527973,,,,,11.3229297,,,,,,bus_stop,,,San Paolo di Ravone,yes,,44.4952771,,,,,,,,,
,,"14, 21, 61, 89",763527975,,,,,11.3201677,,,,,,bus_stop,,,Crocetta,,,44.4953697,,,,,,,,,
,,"14, 21, 61, 89",763527979,,,,,11.3264557,,,,,,bus_stop,,,Andrea Costa,,,44.4950048,,,,,,,,,
,,"14, 21, 61, 89",763527981,,,,,11.3159638,,,,,,bus_stop,,,Martini,,,44.4949731,,,,,,,,,
,,"14, 21, 61, 89",763527982,,,,,11.3260637,,,,,,bus_stop,,,Andrea Costa,yes,,44.4949414,,,,,,,,,
,,,763527984,,,,,11.3184569,,,,,,bus_stop,,,Istituto Berretta,,,44.4916208,,,,,,,,,
,,"14, 21, 61, 89",763527985,,,,,11.315778,,,,,,bus_stop,,,Martini,yes,,44.4948584,,,,,,,,,
,,"14, 21, 61, 89",763527987,,,,,11.3199635,,,,,,bus_stop,,,Crocetta,,,44.4954205,,,,,,,,,
,,"14, 21, 61, 89",763527988,,,,,11.3227957,,,,,,bus_stop,,,San Paolo di Ravone,,,44.4953759,,,,,,,,,
,,,763527989,,,,,11.3188738,,,,,,bus_stop,,,Istituto Berretta,yes,,44.4914346,,,,,,,,,
,,,769682810,,,,,11.3145177,,,,,,bus_stop,,,Cippo di Sabbiuno,,,44.4215467,,,,,,,,,
,,,771477755,,Val di Noce_V,,,11.6794018,,,,,,bus_stop,,312 C,,,,44.0613073,,,,,,,,,
,,,775913399,,,,,11.3694619,,,,,,bus_stop,,,Duse,,,44.501253,,,,,,,,,
,,,775913404,,,,,11.3696336,,,,,,bus_stop,,,Duse,,,44.5002736,,,,,,,,,
,,,781534254,BUSITALIA - SITA Nord S.r.l.,,,,11.6003589,,,,Via Eridania C/O Bergamini,,bus_stop,,,Centro Scarpa,,,44.9133339,,,646010,Occhiobello,,,,,
,,,781534434,BUSITALIA - SITA Nord S.r.l.,,,,11.603252,,,,Via Eridania C/O Somef,,bus_stop,,,Agip Via Eridania,,,44.9001779,,,646008,Occhiobello,,,,,
,,,781534584,BUSITALIA - SITA Nord S.r.l.,,,,11.6002188,,,,Via Eridania C/O Dalla Villa,,bus_stop,,,Centro Scarpa,,,44.9137359,,,646011,Occhiobello,,,,,
,,,781534701,BUSITALIA - SITA Nord S.r.l.,,,,11.5953814,,,,Via Eridania C/O H. Savonarola,,bus_stop,,,Hotel Savonarola,,,44.9186432,,,646012,Occhiobello,,,,,
,,,781534839,BUSITALIA - SITA Nord S.r.l.,,,,11.6034916,,,,Via Eridania Fr Somef,,bus_stop,,,Agip Via Eridania,,,44.900348,,,646009,Occhiobello,,,,,
,,,781534884,BUSITALIA - SITA Nord S.r.l.,,,,11.6069315,,,,Via Eridania Ang Via Gramsci,,bus_stop,,,S.Maria Maddalena Bar Cuba,,,44.8948982,,,646007,Occhiobello,,,,,
,,,781534976,BUSITALIA - SITA Nord S.r.l.,,,,11.5952883,,,,Via Eridania C/O H. Savonarola,,bus_stop,,,Hotel Savonarola,,,44.9190328,,,646013,Occhiobello,,,,,
,,,781534988,,,,,11.5796627,,,,,,bus_stop,,,Occhiobello - Centro,,,44.9198319,,,646003,Occhiobello,,,,,
,,3000A;3000R;3300A;3300R;3500A;3500R;6200A;6200R;7100A;7100R,784015510,ATC,,,,11.4113645,,,,Viale Matteotti,,bus_stop,,,Bondeno Stazione,,,44.9013355,,,603046,Bondeno,,,,,
,,3300A,794160050,ATC,,,,11.5328146,,,,Bondeno - Ferrara 90,,bus_stop,,,Officina Bonetti,,,44.903684,,,600802,Ferrara,,,,,
,,3300A,794160053,ATC,,,,11.5729333,,,,Via Eridano,,bus_stop,,,Campo Lodi - Casello Ferrara Nord,,,44.8678963,,,600787,Ferrara,,,,,
,,3300A,794160061,ATC,,,,11.5265504,,,,Bondeno - Ferrara 146,,bus_stop,,,La Motta,,,44.9072158,,,600804,Ferrara,,,,,
,,3000A;3000R;3300A;3300R;3500A;6200A;7100R,794160074,ATC,,,,11.417216,,,,Viale Matteotti Giacomo 59,,bus_stop,,,Bondeno Viale Matteotti,,,44.8901279,,,603045,Bondeno,,,,,
,,7100A,794160090,CORN,,,,11.3902621,,,,Via Per Zerbinate,,bus_stop,,,Ponti Spagna,,,44.9231595,,,603135,Bondeno,,,,,
,,3300A,794160091,ATC,,,,11.5197869,,,,Bondeno - Ferrara F181,,bus_stop,,,Ca Vidara,,,44.9124123,,,600807,Ferrara,,,,,
,,3300A,794160092,ATC,,,,11.5857937,,,,Via Eridano 22,,bus_stop,,,Due Pezzi - Opel,,,44.8535804,,,600785,Ferrara,,,,,
,,3300A,794160101,ATC,,,,11.5542967,,,,Bondeno - Ferrara 126,,bus_stop,,,La Volpe,,,44.8884619,,,600791,Ferrara,,,,,
,,3000A;3000R;3300A;3300R;3500R;6200R;7000A;7000R;7100A;7200A;7200R,794160112,ATC,,,,11.4167716,,,,Via Pironi Antonio 41 - Chiosco,,bus_stop,,,Bondeno - Ex Autostazione,,,44.8873849,,,603042,Bondeno,,,,,
,,3300R,794160127,ATC,,,,11.540513,,,,Bondeno - Ferrara 80,,bus_stop,,,Casaglia Scuole,,,44.9011381,,,600799,Ferrara,,,,,
,,7100R,794160129,CORN,,,,11.389985,,,,Via Per Zerbinate,,bus_stop,,,Ponti Spagna,,,44.9231898,,,603136,Bondeno,,,,,
,,3300R,794160131,ATC,,,,11.5328977,,,,Bondeno - Ferrara 63,,bus_stop,,,Officina Bonetti,,,44.9032872,,,600803,Ferrara,,,,,
,,3300R,794160133,ATC,,,,11.5858955,,,,Via Eridano 13,,bus_stop,,,Due Pezzi - Opel,,,44.8533199,,,600786,Ferrara,,,,,
,,3300A,794160134,ATC,,,,11.540062,,,,Bondeno - Ferrara 109,,bus_stop,,,Casaglia Scuole,,,44.901201,,,600798,Ferrara,,,,,
,,3300R,794160145,ATC,,,,11.5586164,,,,Bondeno - Ferrara 51,,bus_stop,,,Tre Casette,,,44.8830695,,,600790,Ferrara,,,,,
,,3300R,794160149,ATC,,,,11.5197134,,,,Bondeno - Ferrara 179,,bus_stop,,,Ca Vidara,,,44.912271,,,600808,Ferrara,,,,,
,,3300R,794160158,ATC,,,,11.5352333,,,,Bondeno - Ferrara 16,,bus_stop,,,Casaglia,,,44.9008178,,,600801,Ferrara,,,,,
,,3000A;3000R;3300A;3300R;3500R;6200R;7100A,794160163,ATC,,,,11.4173056,,,,Viale Matteotti Giacomo 54,,bus_stop,,,Bondeno Viale  Matteotti,,,44.8909753,,,603044,Bondeno,,,,,
,,3300R,794160174,ATC,,,,11.5522171,,,,Bondeno - Ferrara 79,,bus_stop,,,Ca Guirina,,,44.8898858,,,600795,Ferrara,,,,,
,,3300A;449A;449R,794160176,ATC,,,,11.5783961,,,,,,bus_stop,,,Bennet Centro Commerciale,,,44.8598426,,,600829,Ferrara,,,,,
,,3300R,794160178,ATC,,,,11.5730295,,,,Via Eridano,,bus_stop,,,Campo Lodi - Casello Ferrara Nord,,,44.867594,,,600788,Ferrara,,,,,
,,3300R,794160180,ATC,,,,11.5472457,,,,Bondeno - Ferrara 112,,bus_stop,,,Pompa San Cristoforo,,,44.9015576,,,600797,Ferrara,,,,,
,,3000A;3000R;3300A;3300R;3500A;6200A;6200R;7100R,794160186,ATC,,,,11.4162111,,,,Via Pironi Antonio 110,,bus_stop,,,Bondeno - Ex Autostazione,,,44.8877232,,,603043,Bondeno,,,,,
,,3300R,794160194,ATC,,,,11.5267728,,,,Bondeno - Ferrara 115,,bus_stop,,,La Motta,,,44.9071062,,,600806,Ferrara,,,,,
,,7100A,794160196,CORN,,,,11.397124,,,,Via Per Zerbinate,,bus_stop,,,Crociale,,,44.9208712,,,603132,Bondeno,,,,,
,,3300A,794160197,ATC,,,,11.5350383,,,,Bondeno - Ferrara 25,,bus_stop,,,Casaglia,,,44.900884,,,600800,Ferrara,,,,,
,,3300A,794160199,ATC,,,,11.5894955,,,,Via Eridano 2,,bus_stop,,,Via Eridano,,,44.849208,,,600783,Ferrara,,,,,
,,3300A,794160200,ATC,,,,11.5520838,,,,Bondeno - Ferrara F79,,bus_stop,,,Ca Guirina,,,44.8901843,,,600793,Ferrara,,,,,
,,3300A,794160212,ATC,,,,11.5584435,,,,Bondeno - Ferrara 92,,bus_stop,,,Tre Casette,,,44.8836031,,,600789,Ferrara,,,,,
,,7100R,794160214,CORN,,,,11.397559,,,,Via Per Zerbinate,,bus_stop,,,Crociale,,,44.9193168,,,603133,Bondeno,,,,,
,,3300A,794160215,ATC,,,,11.5493512,,,,Bondeno - Ferrara 156,,bus_stop,,,Pompa San Cristoforo,,,44.9009876,,,600796,Ferrara,,,,,
,,3300R,794160217,ATC,,,,11.5893963,,,,Via Eridano 1,,bus_stop,,,Via Eridano,,,44.8491696,,,600784,Ferrara,,,,,
,,3300R,794160218,ATC,,,,11.5547337,,,,Bondeno - Ferrara F126,,bus_stop,,,La Volpe,,,44.8879065,,,600792,Ferrara,,,,,
,,7000A;7000R;7100A;7100R;7200A;7200R,794160219,CORN,,,,11.4167183,,,,Via Giordano Bruno 43,,bus_stop,,,Bondeno - Via Giordano Bruno,,,44.8904625,,,603131,Bondeno,,,,,
,,,795977437,,,,,11.3284291,,,,,,bus_stop,,,Porta Saragozza,,,44.4904118,,,,,,,,,
,,,795977438,,,,,11.3285428,,,,,,bus_stop,,,Porta Saragozza,,,44.4904912,,,,,Accessibile solo dalla strada,,no,,
,,,796800764,,,,,11.1989185,yes,,,,,bus_stop,,,Anzola Emilia Marconi,yes,,44.5439968,,,,,,,,no,
,,,796800765,,,,,11.1917344,yes,,,,,bus_stop,,,Anzola Emilia,yes,,44.5466349,,,,,,,,no,
,,,796800772,,,,,11.1972222,yes,,,,,bus_stop,,,Anzola Emilia Marconi,yes,,44.5447712,,,,,,,,no,
,,,796800773,,,,,11.1942985,yes,,,,,bus_stop,,,Anzola Emilia,yes,,44.5456069,,,,,,,,no,
,,,796800777,,,,,11.2023972,yes,,,,,bus_stop,,,Anzola Emilia Carpanelli,yes,,44.5426513,,,,,,,,no,
,,,796800793,,,,,11.201721,,,,,,bus_stop,,,Anzola Emilia Carpanelli,,,44.5430301,,,,,,,,,
,,,798555879,,,,,11.1854808,yes,,,,,bus_stop,,,Anzola Emilia Terremare,yes,,44.54884,,,,,,,,no,
,,,798555932,,,,,11.1860777,no,,,,,bus_stop,,,Anzola Emilia Terremare,no,,44.5484553,,,,,,,,no,
,,,798555938,,,,,11.1879474,yes,,,,,bus_stop,,,Anzola Emilia,yes,,44.5479986,,,,,,,,no,
,,,798555946,,,,,11.1881335,yes,,,,,bus_stop,,,Anzola Emilia,yes,,44.5477543,,,,,,,,no,
,,3300R,801955594,ATC,,,,11.4484458,,,,Bondeno - Ferrara 93,,bus_stop,,,Salvatonica Il Capitello,,,44.9264273,,,603094,Bondeno,,,,,
,,7000A;7200A,801955601,CORN,,,,11.4058913,,,,Via Per Pilastri,,bus_stop,,,Capitello,,,44.8946615,,,603128,Bondeno,,,,,
,,3300R,801955603,ATC,,,,11.4735598,,,,Via Palantone 27,,bus_stop,,,Porporana,,,44.9243569,,,600827,Ferrara,,,,,
,,3000A;3000R;3300A;3500A;3500R;6200A;6200R;7000R;7200R,801955606,ATC,,,,11.4117595,,,,Via Virgiliana [ Bondeno ] 20,,bus_stop,,,Bondeno Ponte Rana,,,44.8874528,,,603040,Bondeno,,,,,
,,3300A,801955615,ATC,,,,11.2977728,,,,Via Comunale [ Gavello ] 71,,bus_stop,,,Gavello,,,44.9145647,,,603082,Bondeno,,,,,
,,3300R,801955617,ATC,,,,11.4281415,,,,Borgo San Giovanni,,bus_stop,,,Bondeno Ponte Motte,,,44.883924,,,603023,Bondeno,,,,,
,,3300R;3500R;6200R,801955624,ATC,,,,11.3421618,,,,Via Provinciale [ Scortichino ] 103,,bus_stop,,,Casette Piretta,,,44.8795833,,,603066,Bondeno,,,,,
,,3000A;3300A;7000R,801955627,ATC,,,,11.5052364,,,,Virgiliana 274,,bus_stop,,,Bivio Diamantina - Bar Belvedere,,,44.8712773,,,622033,Vigarano Mainarda,,,,,
,,3000A;3300A;7000R,801955630,ATC,,,,11.4343282,,,,Via Virgiliana,,bus_stop,,,Bondeno - Napoleonico,,,44.8759207,,,603000,Bondeno,,,,,
,,3300A;3500A;6200A,801955635,ATC,,,,11.3950502,,,,Via Per Scortichino,,bus_stop,,,Belfiore Di Bondeno,,,44.8832833,,,603055,Bondeno,,,,,
,,3300R,801955638,ATC,,,,11.2631829,,,,Via Comunale [ Gavello ] 447,,bus_stop,,,Villa Cipressi,,,44.9277529,,,603092,Bondeno,,,,,
,,3300R,801955643,ATC,,,,11.4916567,,,,Via Carlo Martelli,,bus_stop,,,Ponte Rosso,,,44.9259397,,,600819,Ferrara,,,,,
,,3300A;3300R;3500R;6200R,801955646,ATC,,,,11.4100274,,,,Viale Venti Settembre 7,,bus_stop,,,Maglificio Tassi,,,44.8878308,,,603050,Bondeno,,,,,
,,3300A,801955650,ATC,,,,11.4287966,,,,Via San Biagio,,bus_stop,,,Le Muraglie - Saman,,,44.9011399,,,603018,Bondeno,,,,,
,,7000A;7200A,801955657,CORN,,,,11.3901132,,,,Via Virgiliana,,bus_stop,,,Corpus Domini Via Ca Basse,,,44.8966008,,,603126,Bondeno,,,,,
,,3300A,801955659,ATC,,,,11.4826779,,,,Bondeno - Ferrara 270,,bus_stop,,,Podere Boaria Grande,,,44.9250782,,,600822,Ferrara,,,,,
,,3300R,801955664,ATC,,,,11.2766867,,,,Via Comunale [ Gavello ] 415,,bus_stop,,,Redena,,,44.9207507,,,603090,Bondeno,,,,,
,,3300R;6200R,801955671,ATC,,,,11.3208765,,,,Via Provinciale [ Scortichino ] 171,,bus_stop,,,Mulino Scacchetti,,,44.8864859,,,603070,Bondeno,,,,,
,,3300A,801955674,ATC,,,,11.4355418,,,,Bondeno - Ferrara 167,,bus_stop,,,La Zanfognina,,,44.9236812,,,603101,Bondeno,,,,,
,,3300R,801955675,ATC,,,,11.3170516,,,,Via Comunale,,bus_stop,,,Gavello Cimitero,,,44.9099391,,,603079,Bondeno,,,,,
,,3300A,801955681,ATC,,,,11.2769047,,,,Via Comunale [ Gavello ] 246,,bus_stop,,,Redena,,,44.9209281,,,603089,Bondeno,,,,,
,,3300R,801955682,ATC,,,,11.4514958,,,,Bondeno - Ferrara 71,,bus_stop,,,Salvatonica,,,44.9244299,,,603072,Bondeno,,,,,
,,3300A,801955685,ATC,,,,11.4300189,,,,Via San Biagio,,bus_stop,,,Ospitale,,,44.8921305,,,603020,Bondeno,,,,,
,,3300A;6200A,801955696,ATC,,,,11.3307507,,,,Via Provinciale [ Scortichino ] 120,,bus_stop,,,Scortichino,,,44.8828635,,,603067,Bondeno,,,,,
,,7000A;7200A,801955700,CORN,,,,11.3506245,,,,Via Virgiliana,,bus_stop,,,Chiavica Ponte Ca Verde,,,44.9207449,,,603159,Cento,,,,,
,,"364, 371, 374",801955709,ATC,,,,11.4154523,,,,Via Virgiliana,,bus_stop,,,Bondeno Ospedale,,,44.8821531,,,603038,Bondeno,,,,,
,,3300R;3500R;6200R,801955711,ATC,,,,11.3799531,,,,Bondeno - Finale Emilia 105,,bus_stop,,,Dosso Alto,,,44.8802038,,,603057,Bondeno,,,,,
,,3300A,801955719,ATC,,,,11.4735935,,,,Via Palantone 38,,bus_stop,,,Porporana,,,44.9244824,,,600826,Ferrara,,,,,
,,3300R,801955723,ATC,,,,11.2977441,,,,Via Comunale [ Gavello ] 60,,bus_stop,,,Gavello,,,44.9144396,,,603084,Bondeno,,,,,
,,3300R,801955733,ATC,,,,11.483276,,,,Bondeno - Ferrara 287,,bus_stop,,,Podere Boaria Grande,,,44.9253215,,,600823,Ferrara,,,,,
,,3000A;3000R;3300R;3500A;6200A;6200R;7000A,801955735,ATC,,,,11.4116672,,,,Via Virgiliana [ Bondeno ] F20,,bus_stop,,,Bondeno Ponte Rana,,,44.8875349,,,603041,Bondeno,,,,,
,,7000R;7200R,801955740,CORN,,,,11.3526455,,,,Via Virgiliana,,bus_stop,,,Burana,,,44.9169713,,,603125,Bondeno,,,,,
,,3300R,801955744,ATC,,,,11.4880834,,,,Bondeno - Ferrara 273,,bus_stop,,,Podere Novelle,,,44.9256423,,,600821,Ferrara,,,,,
